,Fuel Type Code,Station Name,Street Address,Intersection Directions,City,State,ZIP,Plus4,Station Phone,Status Code,Expected Date,Groups With Access Code,Access Days Time,Cards Accepted,BD Blends,NG Fill Type Code,NG PSI,EV Level1 EVSE Num,EV Level2 EVSE Num,EV DC Fast Count,EV Other Info,EV Network,EV Network Web,Geocode Status,Latitude,Longitude,Date Last Confirmed,ID,Updated At,Owner Type Code,Federal Agency ID,Federal Agency Name,Open Date,Hydrogen Status Link,NG Vehicle Class,LPG Primary,E85 Blender Pump,EV Connector Types,Country,Intersection Directions (French),Access Days Time (French),BD Blends (French),Groups With Access Code (French),Hydrogen Is Retail,Access Code,Access Detail Code,Federal Agency Code,Facility Type,CNG Dispenser Num,CNG On-Site Renewable Source,CNG Total Compression Capacity,CNG Storage Capacity,LNG On-Site Renewable Source,E85 Other Ethanol Blends,EV Pricing,EV Pricing (French),LPG Nozzle Types,Hydrogen Pressures,Hydrogen Standards,CNG Fill Type Code,CNG PSI,CNG Vehicle Class,LNG Vehicle Class,EV On-Site Renewable Source,Restricted Access,RD Blends,RD Blends (French),RD Blended with Biodiesel,RD Maximum Biodiesel Level,NPS Unit Name,CNG Station Sells Renewable Natural Gas,LNG Station Sells Renewable Natural Gas,Maximum Vehicle Class,EV Workplace Charging
864,LPG,U-Haul,10125 N IH-35,North of Rundberg and South of Breaker exits,Austin,TX,78753,,512-973-9227,E,,Public - Call ahead,"7am-7pm M-Th and Sat, 7am-8pm F, 9am-5pm Sun",A Cash D M V,,,,,,,,,,200-9,30.365616,-97.682805,2023-02-13,20271,2023-02-14 15:54:11 UTC,P,,,2000-11-01,,,False,,,US,,,,Public - Appeler à l'avance,,Public,CALL,,RENTAL_CAR_RETURN,,,,,,,,,"[""ACME"", ""QUICK_CONNECT""]",,,,,,,,False,,,,,,,,HD,
865,LPG,U-Haul,8710 Burnet Rd,South of Highway 183,Austin,TX,78757,,512-459-1388,E,,Public - Call ahead,"7am-7pm M-Sat, 9am-5pm Sun",A Cash Checks D M V,,,,,,,,,,200-9,30.369936,-97.728,2023-02-13,20272,2023-02-14 15:54:11 UTC,P,,,2000-11-01,,,False,,,US,,,,Public - Appeler à l'avance,,Public,CALL,,RENTAL_CAR_RETURN,,,,,,,,,"[""QUICK_CONNECT"", ""ACME""]",,,,,,,,False,,,,,,,,,
1200,LPG,Direct Propane Inc,19126 FM 969,,Webberville,TX,78653,,512-276-7800,E,,Public,"8am-6pm M-F, 8am-5pm Sat; must have state decal",A Cash D M V,,,,,,,,,,200-9,30.22844,-97.514844,2023-08-10,22075,2023-08-10 16:58:49 UTC,P,,,2003-07-22,,,True,,,US,,,,Public,,Public,,,FUEL_RESELLER,,,,,,,,,"[""ACME""]",,,,,,,,False,,,,,,,,HD,
1372,LPG,McCoy's Lawn Equipment - North,8501 Research Blvd,,Austin,TX,78758,,512-453-7540,E,,Public,"8am-5:30pm M-F, 9am-5pm Sat",A Cash D M V,,,,,,,,,,200-9,30.359681,-97.71603,2023-08-10,26159,2023-08-10 16:58:49 UTC,P,,,2004-12-14,,,True,,,US,,,,Public,,Public,,,SHOPPING_CENTER,,,,,,,,,"[""ACME""]",,,,,,,,False,,,,,,,,HD,
1582,E85,H-E-B #476,500 Canyon Ridge Dr,Interstate Highway 35 east of  Parmer (Highway 734) at Tech Ridge,Austin,TX,78753,,512-973-8143,E,,Public - Credit card after hours,6am-10pm daily,A Cash D M V,,,,,,,,,,200-9,30.405517,-97.671997,2023-09-14,29386,2023-09-14 14:01:49 UTC,P,,,2006-08-15,,,,False,,US,,,,Public - Carte de crédit après les heures d'ouverture,,Public,CREDIT_CARD_AFTER_HOURS,,GROCERY,,,,,,,,,,,,,,,,,False,,,,,,,,MD,
1704,CNG,Trillium - City of Austin,2400 Business Center Dr,Surrounded by S Industrial Ln on west and Todd Ln on east. Northside of Highway 71 Todd Ln is called Burleson. Located across from City Waste Services Facility.,Austin,TX,78744,,800-920-1166,E,,Public - Credit card at all times,"24 hours daily; station fuels up to class 12 tractors, but class 9-12 tractors will have to detach the trailer to get in the driveway; by spring 2019 the driveway to the station will be widened",M V,,Q,3600,,,,,,,200-9,30.213718,-97.738941,2023-02-13,30622,2023-05-30 18:46:28 UTC,LG,,,2008-02-15,,HD,,,,US,,,,Public - Carte de crédit en tout temps,,Public,CREDIT_CARD_ALWAYS,,MUNI_GOV,1.0,,1000.0,7380.0,,,,,,,,Q,3600,HD,,,False,,,,,,,,HD,
2509,CNG,Clean Energy - Austin Bergstrom International Airport,3100 1/2 Spirit of Texas Dr,"Off State Highway 71. Not at the main airport entrance, instead the use: ""Airport Cargo/Service Entrance"" exit",Austin,TX,78719,,866-809-4869,E,,Public - Credit card at all times,24 hours daily; call 866-809-4869 for Clean Energy card,A CleanEnergy D FleetOne FuelMan M V Voyager Wright_Exp,,Q,3000 3600,,,,,,,200-9,30.209023,-97.67202,2023-09-14,35316,2023-09-14 14:01:49 UTC,P,,,2011-07-21,,MD,,,,US,,,,Public - Carte de crédit en tout temps,,Public,CREDIT_CARD_ALWAYS,,AIRPORT,2.0,NONE,,,,,,,,,,Q,3000 3600,MD,,,False,,,,,,True,,MD,
2580,HY,Gas Technology Institute - University of Texas Austin,10100 Burnet Rd,J.J. Pickle Research Campus at the University of Texas at Austin,Austin,TX,78758,,,T,2024-05-01,TEMPORARILY UNAVAILABLE (Private),,,,,,,,,,,,200-9,30.385441,-97.724939,2023-06-12,35589,2023-06-12 16:56:16 UTC,P,,,2019-06-01,,,,,,US,,,,TEMPORAIREMENT SUSPENDU (Privé),,Private,,,COLLEGE_CAMPUS,,,,,,,,,,"[""350"", ""700""]",,,,,,,,,,,,,,,,
2992,ELEC,Clay Cooley Nissan,4914 S IH-35,,Austin,TX,78745,,512-444-1400,E,,Public - Call ahead,Dealership business hours,,,,,,2.0,1.0,,Non-Networked,,200-9,30.206145,-97.759109,2020-06-09,39114,2023-02-15 22:45:41 UTC,P,,,2011-01-15,,,,,CHADEMO J1772,US,,,,Public - Appeler à l'avance,,Public,CALL,,CAR_DEALER,,,,,,,Free,,,,,,,,,,False,,,,,,,,,False
3051,ELEC,Town North Nissan,9160A Research Blvd,,Austin,TX,78758,,512-451-7411,E,,Public - Call ahead,Dealership business hours,,,,,,1.0,1.0,,Non-Networked,,200-9,30.374542,-97.731445,2022-12-13,39711,2023-02-14 15:54:11 UTC,P,,,2011-03-15,,,,,CHADEMO J1772 J1772COMBO,US,,,,Public - Appeler à l'avance,,Public,CALL,,CAR_DEALER,,,,,,,Free,,,,,,,,,,False,,,,,,,,LD,False
3085,ELEC,Round Rock Nissan,3050 N IH-35,,Round Rock,TX,78681,,512-244-8500,E,,Public - Call ahead,Dealership business hours,,,,,,1.0,1.0,,Non-Networked,,GPS,30.54315305,-97.69371065,2020-06-09,39748,2023-10-27 19:25:04 UTC,P,,,2011-03-15,,,,,CHADEMO J1772 J1772COMBO,US,,,,Public - Appeler à l'avance,,Public,CALL,,CAR_DEALER,,,,,,,Free,,,,,,,,,,False,,,,,,,,,False
3342,ELEC,PIE AE OTC 3FL PKGSTA3,505 Barton Springs Rd,,Austin,TX,78704,,888-758-4389,E,,Public,24 hours daily,,,,,,2.0,,,ChargePoint Network,http://www.chargepoint.com/,GPS,30.256917,-97.749169,2023-10-30,40372,2023-10-30 00:26:11 UTC,,,,2011-05-15,,,,,J1772,US,,,,Public,,Public,,,,,,,,,,,,,,,,,,,,,,,,,,,,,False
3455,ELEC,PIE AE ANIMAL SERVICE2,7201 Levander Loop,,Austin,TX,78702,,888-758-4389,E,,Public,24 hours daily,,,,,,2.0,,,ChargePoint Network,http://www.chargepoint.com/,GPS,30.251357,-97.689015,2023-10-30,41265,2023-10-30 00:26:01 UTC,,,,2011-12-31,,,,,J1772,US,,,,Public,,Public,,,,,,,,,,,,,,,,,,,,,,,,,,,,,False
3456,ELEC,PIE AE PUBDITTMAR2,1009 W Dittmar Rd,,Austin,TX,78745,,888-758-4389,T,2023-07-24,TEMPORARILY UNAVAILABLE (Public),24 hours daily,,,,,,2.0,,,ChargePoint Network,http://www.chargepoint.com/,GPS,30.18534,-97.801184,2023-10-30,41266,2023-10-30 00:26:12 UTC,,,,2011-09-01,,,,,J1772,US,,,,TEMPORAIREMENT SUSPENDU (Public),,Public,,,,,,,,,,,,,,,,,,,,,,,,,,,,,False
3457,ELEC,PIE AE MILWOOD LIB 2,12500 Amherst Dr,,Austin,TX,78727,,888-758-4389,E,,Public,24 hours daily,,,,,,2.0,,,ChargePoint Network,http://www.chargepoint.com/,GPS,30.422284,-97.71646,2023-10-30,41269,2023-10-30 00:26:07 UTC,,,,2011-09-01,,,,,J1772,US,,,,Public,,Public,,,,,,,,,,,,,,,,,,,,,,,,,,,,,False
3458,ELEC,PIE AE PUB-STDAVIDSST1,710 Trinity St,,Austin,TX,78701,,888-758-4389,E,,Public,24 hours daily,,,,,,2.0,,,ChargePoint Network,http://www.chargepoint.com/,GPS,30.268887,-97.738936,2023-10-30,41272,2023-10-30 00:43:16 UTC,,,,2015-10-02,,,,,J1772,US,,,,Public,,Public,,,,,,,,,,,,,,,,,,,,,,,,,,,,,False
5091,ELEC,Round Rock Nissan,3050 N IH-35,,Round Rock,TX,78681,,512-244-8500,E,,Private - Call ahead,7AM-8PM M-Sat,,,,,,1.0,,,Non-Networked,,GPS,30.54315305,-97.69371065,2020-06-09,48242,2023-10-27 19:25:04 UTC,P,,,2011-03-15,,,,,J1772,US,,,,Privé - Appeler à l'avance,,Private,CALL,,CAR_DEALER,,,,,,,Free,,,,,,,,,,,,,,,,,,LD,False
5120,ELEC,Clay Cooley Nissan,4914 S IH-35,,Austin,TX,78745,,512-444-1400,E,,Private,,,,,,,1.0,,,Non-Networked,,200-9,30.206145,-97.759109,2020-06-09,48318,2023-02-15 22:45:41 UTC,P,,,2011-01-15,,,,,J1772,US,,,,Privé,,Private,,,CAR_DEALER,,,,,,,,,,,,,,,,,,,,,,,,,,False
5121,ELEC,Town North Nissan,9160A Research Blvd,,Austin,TX,78758,,512-451-7411,E,,Private,,,,,,,1.0,,,Non-Networked,,200-9,30.374542,-97.731445,2022-12-13,48319,2023-02-14 15:54:11 UTC,P,,,2011-03-15,,,,,J1772,US,,,,Privé,,Private,,,CAR_DEALER,,,,,,,Free,,,,,,,,,,,,,,,,,,LD,False
5277,E85,Circle K #1308,8656 Spicewood Springs Rd,"Highway 183 N southbound Frontage Rd. Traveling south on Highway 183 N, take Anderson Mill exit.",Austin,TX,78759,,512-258-8411,E,,Public,24 hours daily,A Cash Checks D M V Voyager Wright_Exp,,,,,,,,,,200-8,30.43345,-97.77099,2023-09-14,48956,2023-09-14 14:01:49 UTC,P,,,2020-05-01,,,,False,,US,,,,Public,,Public,,,CONVENIENCE_STORE,,,,,,,,,,,,,,,,,False,,,,,,,,MD,
5410,LPG,Eanes Independent School District,1110 Westbank Dr,,Austin,TX,78746,,,E,,Private,,,,,,,,,,,,200-9,30.276395,-97.810292,2023-08-10,49614,2023-08-10 16:58:49 UTC,P,,,2012-11-12,,,,,,US,,,,Privé,,Private,,,FLEET_GARAGE,,,,,,,,,,,,,,,,,,,,,,,,,HD,
5411,LPG,Leander Independent School District - Central Office,1701 W New Hope Dr,Lakeline and W New Hope,Cedar Park,TX,78613,,,E,,Private,,,,,,,,,,,,200-9,30.52697,-97.858188,2023-08-10,49615,2023-08-10 16:58:49 UTC,P,,,2009-01-01,,,,,,US,,,,Privé,,Private,,,FLEET_GARAGE,,,,,,,,,,,,,,,,,,,,,,,,,HD,
5646,LPG,Austin Independent School District,3300 Jones Rd,,Austin,TX,78745,,,E,,Private,,,,,,,,,,,,GPS,30.231971,-97.812681,2022-04-06,50103,2023-02-14 15:54:11 UTC,P,,,2012-12-18,,,,,,US,,,,Privé,,Private,,,FLEET_GARAGE,,,,,,,,,"[""ACME""]",,,,,,,,,,,,,,,,MD,
5647,LPG,Austin Independent School District,7105 Berkman Dr,,Austin,TX,78752,,,E,,Private,,,,,,,,,,,,200-9,30.324043,-97.68837,2022-04-06,50104,2023-02-14 15:54:11 UTC,P,,,2012-12-18,,,,,,US,,,,Privé,,Private,,,FLEET_GARAGE,,,,,,,,,"[""ACME""]",,,,,,,,,,,,,,,,MD,
5648,LPG,Austin Independent School District,7200 Bluff Springs Rd,,Austin,TX,78744,,,E,,Private,,,,,,,,,,,,200-9,30.182031,-97.769888,2022-04-06,50105,2023-02-14 15:54:11 UTC,P,,,2016-01-06,,,,,,US,,,,Privé,,Private,,,FLEET_GARAGE,,,,,,,,,"[""ACME""]",,,,,,,,,,,,,,,,MD,
5651,LPG,Royal Palms Manufactured Home & RV Community,7901 E Ben White Blvd,,Austin,TX,78741,,512-385-2211,E,,Public,"9am-5:30pm M-F, 9am-1pm Sat",Cash Checks D M V,,,,,,,,,,200-9,30.219269,-97.687927,2023-07-11,50111,2023-07-11 18:28:56 UTC,P,,,2012-12-18,,,True,,,US,,,,Public,,Public,,,CAMPGROUND,,,,,,,,,"[""ACME""]",,,,,,,,False,,,,,,,,HD,
6270,ELEC,PIE AE ERCOT 3,7620 Metro Center Dr,,Austin,TX,78744,,888-758-4389,E,,Public,24 hours daily,,,,,,2.0,,,ChargePoint Network,http://www.chargepoint.com/,GPS,30.216443,-97.69223,2023-10-30,52837,2023-10-30 00:36:40 UTC,,,,2015-10-02,,,,,J1772,US,,,,Public,,Public,,,,,,,,,,,,,,,,,,,,,,,,,,,,,False
6615,E85,Corner Store #1550,1221 E New Hope Dr,Station is on NW corner of intersection. E85 sign is small and low-to-ground.,Cedar Park,TX,78613,,512-260-7795,E,,Public,24 hours daily,A Cash D M V,,,,,,,,,,200-9,30.537892,-97.81735,2023-09-14,53793,2023-09-14 14:01:49 UTC,P,,,2013-12-15,,,,False,,US,,,,Public,,Public,,,CONVENIENCE_STORE,,,,,,,,,,,,,,,,,False,,,,,,,,MD,
7291,E85,Circle K #274551,12300 Harris Branch Pkwy,,Manor,TX,78653,,512-278-8004,E,,Public,24 hours daily,A Cash D M V,,,,,,,,,,200-8,30.36943,-97.61375,2023-10-12,61906,2023-10-12 13:37:08 UTC,P,,,2014-01-01,,,,False,,US,,,,Public,,Public,,,CONVENIENCE_STORE,,,,,,,,,,,,,,,,,False,,,,,,,,MD,
7373,ELEC,PIE AE PUBPEARSON CTR1,400 Center Ridge Dr,,Austin,TX,78753,,888-758-4389,E,,Public,24 hours daily,,,,,,2.0,,,ChargePoint Network,http://www.chargepoint.com/,GPS,30.417411,-97.664204,2023-10-30,62244,2023-10-30 00:40:02 UTC,,,,2015-10-02,,,,,J1772,US,,,,Public,,Public,,,,,,,,,,,,,,,,,,,,,,,,,,,,,False
7420,CNG,Trillium - City of Austin,2400 Business Center Dr,Surrounded by S Industrial Ln on west and Todd Ln on east. Northside of Highway 71 Todd Ln is called Burleson. Located across from City Waste Services Facility.,Austin,TX,78744,,800-920-1166,E,,Private - Government only,,,,Q,3600,,,,,,,200-9,30.213718,-97.738941,2023-02-13,62453,2023-05-30 18:46:28 UTC,LG,,,2008-02-15,,HD,,,,US,,,,Privé - Réservé au gouvernement,,Private,GOVERNMENT,,MUNI_GOV,,,,,,,,,,,,Q,3600,HD,,,,,,,,,,,HD,
7722,E85,H-E-B #639,1801 E 51st St,51st St and Berkman Dr,Austin,TX,78723,,512-474-2199,E,,Public - Credit card after hours,6am-12am daily,A Cash D M V,,,,,,,,,,200-9,30.302619,-97.699409,2023-09-14,63388,2023-09-14 14:01:49 UTC,P,,,2014-09-01,,,,False,,US,,,,Public - Carte de crédit après les heures d'ouverture,,Public,CREDIT_CARD_AFTER_HOURS,,GROCERY,,,,,,,,,,,,,,,,,False,,,,,,,,MD,
7846,CNG,CNG 4 America - Austin,907 E St Johns Ave,"Behind the Pollo Campero restaurant/ Sunrise Mini Mart. Notable by iron fence surrounding property. Primary signage is Pollo Campero. CNG is the only fuel sold, currently no CNG signage",Austin,TX,78752,,888-560-5556,E,,Public - Credit card at all times,24 hours daily,A D FuelMan M V Voyager Wright_Exp,,Q,3600,,,,,,,200-9,30.330588,-97.701649,2023-06-12,63757,2023-06-12 16:56:16 UTC,P,,,2016-01-15,,HD,,,,US,,,,Public - Carte de crédit en tout temps,,Public,CREDIT_CARD_ALWAYS,,CONVENIENCE_STORE,2.0,,430.0,60300.0,,,,,,,,Q,3600,HD,,,False,,,,,,False,,HD,
8205,ELEC,PIE AE PALMER STATION4,846888 Barton Springs Rd,,Austin,TX,78704,,888-758-4389,E,,Public,24 hours daily,,,,,,2.0,,,ChargePoint Network,http://www.chargepoint.com/,GPS,30.259769,-97.752509,2023-10-30,65374,2023-10-30 00:36:17 UTC,,,,2015-10-02,,,,,J1772,US,,,,Public,,Public,,,,,,,,,,,,,,,,,,,,,,,,,,,,,False
8300,ELEC,PIE AE HEB E51ST DCFC1,1801 E 51st St,,Austin,TX,78723,,888-758-4389,E,,Public,24 hours daily,,,,,,,1.0,,ChargePoint Network,http://www.chargepoint.com/,GPS,30.302274,-97.697951,2023-10-30,65642,2023-10-30 00:40:32 UTC,,,,2015-02-11,,,,,CHADEMO J1772COMBO,US,,,,Public,,Public,,,,,,,,,,,,,,,,,,,,,,,,,,,,,False
9143,LPG,U-Haul,9001 I-35 S,Southeast corner of Slaughter and I-35,Austin,TX,78744,,512-280-3232,E,,Public - Call ahead,"7am-7pm M-Th and Sat, 7am-8pm F, 9am-5pm Sun",A Cash D M V,,,,,,,,,,200-9,30.166413,-97.784412,2023-02-13,68637,2023-02-14 15:54:11 UTC,P,,,2015-07-31,,,False,,,US,,,,Public - Appeler à l'avance,,Public,CALL,,RENTAL_CAR_RETURN,,,,,,,,,"[""QUICK_CONNECT"", ""ACME""]",,,,,,,,False,,,,,,,,,
9144,LPG,U-Haul,5412 N Lamar Blvd,Corner of Houston and Lamar,Austin,TX,78751,,512-451-7365,E,,Public,"7am-7pm M-Th and Sat, 7am-8pm F, 9am-5pm Sun",A Cash D M V,,,,,,,,,,200-9,30.322728,-97.72878,2023-02-13,68639,2023-02-14 15:54:11 UTC,P,,,2015-07-31,,,True,,,US,,,,Public,,Public,,,RENTAL_CAR_RETURN,,,,,,,,,"[""ACME"", ""QUICK_CONNECT""]",,,,,,,,False,,,,,,,,HD,
9145,LPG,U-Haul,304 E Ben White Blvd,,Austin,TX,78704,,512-447-9875,E,,Public,"7am-7pm M-Th and Sat, 7am-8pm F, 9am-5pm Sun",A Cash D M V,,,,,,,,,,200-9,30.222064,-97.760702,2023-02-13,68640,2023-02-14 15:54:11 UTC,P,,,2015-07-31,,,True,,,US,,,,Public,,Public,,,RENTAL_CAR_RETURN,,,,,,,,,"[""QUICK_CONNECT"", ""ACME""]",,,,,,,,False,,,,,,,,,
9146,LPG,U-Haul,6610 Burnet Rd,,Austin,TX,78757,,512-302-3604,E,,Public,"7am-7pm M-Th and Sat, 7am-8pm F, 9am-5pm Sun",A Cash D M V,,,,,,,,,,200-9,30.34305,-97.739175,2023-02-13,68641,2023-02-14 15:54:11 UTC,P,,,2015-07-31,,,False,,,US,,,,Public,,Public,,,RENTAL_CAR_RETURN,,,,,,,,,"[""ACME"", ""QUICK_CONNECT""]",,,,,,,,False,,,,,,,,HD,
9172,LPG,U-Haul,1617 Three Points Rd,Grand Avenue Pkwy and Vision (IH-35 South).,Pflugerville,TX,78660,,512-251-7491,E,,Public,"7am-7pm M-Th and Sat, 7am-8pm F, 9am-5pm Sun",A Cash D M V,,,,,,,,,,200-9,30.451792,-97.663336,2023-02-13,68672,2023-02-14 15:54:11 UTC,P,,,2015-07-31,,,True,,,US,,,,Public,,Public,,,RENTAL_CAR_RETURN,,,,,,,,,"[""ACME"", ""QUICK_CONNECT""]",,,,,,,,False,,,,,,,,HD,
9174,LPG,U-Haul,1535 Round Rock Ave,Cross Street Deep Wood Drive,Round Rock,TX,78681,,512-218-9099,E,,Public,"7am-7pm M-Th and Sat, 7am-8pm F, 9am-5pm Sun",A Cash D M V,,,,,,,,,,200-9,30.511964,-97.700075,2023-02-13,68674,2023-02-14 15:54:11 UTC,P,,,2015-07-31,,,True,,,US,,,,Public,,Public,,,RENTAL_CAR_RETURN,,,,,,,,,"[""ACME"", ""QUICK_CONNECT""]",,,,,,,,False,,,,,,,,HD,
9566,ELEC,HPI 3700 3900 SC 3,3900 N Capital of Texas Hwy,,Austin,TX,78746,,888-758-4389,E,,Public,24 hours daily,,,,,,2.0,,,ChargePoint Network,http://www.chargepoint.com/,GPS,30.337931,-97.807977,2023-10-30,70514,2023-10-30 00:28:12 UTC,,,,2015-10-02,,,,,J1772,US,,,,Public,,Public,,,,,,,,,,,,,,,,,,,,,,,,,,,,,False
10873,ELEC,PIE AE PALMER STATION5,736 Barton Springs Rd,,Austin,TX,78704,,888-758-4389,E,,Public,24 hours daily,,,,,,2.0,,,ChargePoint Network,http://www.chargepoint.com/,GPS,30.259705,-97.752496,2023-10-30,78778,2023-10-30 00:36:17 UTC,,,,2016-09-28,,,,,J1772,US,,,,Public,,Public,,,,,,,,,,,,,,,,,,,,,,,,,,,,,False
11348,ELEC,CITY VIEW STATION1,1250 S Capital of Texas Hwy,,Austin,TX,78746,,888-758-4389,E,,Public,24 hours daily,,,,,,2.0,,,ChargePoint Network,http://www.chargepoint.com/,GPS,30.280698,-97.824024,2023-10-30,81050,2023-10-30 00:26:31 UTC,,,,2017-01-28,,,,,J1772,US,,,,Public,,Public,,,,,,,,,,,,,,,,,,,,,,,,,,,,,False
11801,ELEC,STEINER RANCH 1 STEINER2,4800 Steiner Ranch Blvd,,Austin,TX,78732,,888-758-4389,E,,Public,24 hours daily,,,,,,2.0,,,ChargePoint Network,http://www.chargepoint.com/,GPS,30.383012,-97.874313,2023-10-30,82741,2023-10-30 00:21:39 UTC,,,,2017-05-26,,,,,J1772,US,,,,Public,,Public,,,,,,,,,,,,,,,,,,,,,,,,,,,,,False
12465,ELEC,PIE AE VILLATGRACYFARM,2600 Gracy Farms Ln,,Austin,TX,78758,,888-758-4389,E,,Public,24 hours daily,,,,,,2.0,,,ChargePoint Network,http://www.chargepoint.com/,GPS,30.405175,-97.711583,2023-10-30,88242,2023-10-30 00:21:28 UTC,,,,2017-11-01,,,,,J1772,US,,,,Public,,Public,,,,,,,,,,,,,,,,,,,,,,,,,,,,,False
12940,ELEC,BRANDYWINE AUST FOUR POINTS 01,11305 4 Points Dr,,Austin,TX,78726,,888-758-4389,E,,Public,24 hours daily,,,,,,2.0,,,ChargePoint Network,http://www.chargepoint.com/,GPS,30.404059,-97.850068,2023-10-30,92339,2023-10-30 00:22:03 UTC,,,,2018-03-07,,,,,J1772,US,,,,Public,,Public,,,,,,,,,,,,,,,,,,,,,,,,,,,,,False
13036,ELEC,COA NEWCENTRALLIB4,710 W Cesar Chavez St,,Austin,TX,78701,,888-758-4389,E,,Public,24 hours daily,,,,,,2.0,,,ChargePoint Network,http://www.chargepoint.com/,GPS,30.266132,-97.751803,2023-10-30,94387,2023-10-30 00:24:29 UTC,,,,2018-03-22,,,,,J1772,US,,,,Public,,Public,,,,,,,,,,,,,,,,,,,,,,,,,,,,,False
13401,ELEC,ORACLE ATX23 G1 1,2300 cloudway,,Austin,TX,78741,,888-758-4389,E,,Public,24 hours daily,,,,,,2.0,,,ChargePoint Network,http://www.chargepoint.com/,GPS,30.241969,-97.720292,2023-10-30,96842,2023-10-30 00:21:24 UTC,,,,2018-04-28,,,,,J1772,US,,,,Public,,Public,,,,,,,,,,,,,,,,,,,,,,,,,,,,,False
13415,ELEC,WEINSTEIN ANDERSON 1,8601 Anderson Mill Rd,,Austin,TX,78729,,888-758-4389,E,,Public,24 hours daily,,,,,,2.0,,,ChargePoint Network,http://www.chargepoint.com/,GPS,30.455107,-97.768221,2023-10-30,96899,2023-10-30 00:23:33 UTC,,,,2018-05-04,,,,,J1772,US,,,,Public,,Public,,,,,,,,,,,,,,,,,,,,,,,,,,,,,False
13416,ELEC,WEINSTEIN SILVERADO 1,12930 W Parmer Ln,,Cedar Park,TX,78613,,888-758-4389,E,,Public,24 hours daily,,,,,,2.0,,,ChargePoint Network,http://www.chargepoint.com/,GPS,30.532399,-97.779871,2023-10-30,96901,2023-10-30 00:23:33 UTC,,,,2018-05-04,,,,,J1772,US,,,,Public,,Public,,,,,,,,,,,,,,,,,,,,,,,,,,,,,False
13417,ELEC,WEINSTEIN WHITESTONE 1,13945 Research Blvd,,Austin,TX,78729,,888-758-4389,E,,Public,24 hours daily,,,,,,2.0,,,ChargePoint Network,http://www.chargepoint.com/,GPS,30.471863,-97.796031,2023-10-30,96902,2023-10-30 00:23:33 UTC,,,,2018-05-04,,,,,J1772,US,,,,Public,,Public,,,,,,,,,,,,,,,,,,,,,,,,,,,,,False
13440,ELEC,ST. ED'S GARAGE STATION1,578 Woodward St,,Austin,TX,78704,,888-758-4389,E,,Public,24 hours daily,,,,,,2.0,,,ChargePoint Network,http://www.chargepoint.com/,GPS,30.226907,-97.751966,2023-10-30,96978,2023-10-30 00:24:28 UTC,,,,2018-05-10,,,,,J1772,US,,,,Public,,Public,,,,,,,,,,,,,,,,,,,,,,,,,,,,,False
13492,ELEC,PIE AE WEST LAKE DC4,701 S Capital of Texas Hwy,,Austin,TX,78746,,888-758-4389,E,,Public,24 hours daily,,,,,,,1.0,,ChargePoint Network,http://www.chargepoint.com/,GPS,30.292583,-97.827741,2023-10-30,98528,2023-10-30 00:46:18 UTC,,,,2018-05-25,,,,,CHADEMO J1772COMBO,US,,,,Public,,Public,,,,,,,,,,,,,,,,,,,,,,,,,,,,,False
13740,ELEC,Cedar Park Nissan,2121 S Bell Blvd,,Cedar Park,TX,78613,,512-620-7200,E,,Public,Dealership business hours,,,,,,1.0,,,Non-Networked,,200-9,30.484634,-97.807088,2020-06-09,99512,2023-02-15 22:45:41 UTC,P,,,2018-06-28,,,,,J1772,US,,,,Public,,Public,,,CAR_DEALER,,,,,,,Free,,,,,,,,,,False,,,,,,,,,False
13741,ELEC,Cedar Park Nissan,2121 S Bell Blvd,,Cedar Park,TX,78613,,512-620-7200,E,,Private,,,,,,,1.0,,,Non-Networked,,200-9,30.484634,-97.807088,2020-06-09,99513,2023-02-15 22:45:41 UTC,P,,,2018-06-28,,,,,J1772,US,,,,Privé,,Private,,,CAR_DEALER,,,,,,,,,,,,,,,,,,,,,,,,,,False
13812,ELEC,AUSTIN HQ STATION 1,4200 Smith School Dr,,Austin,TX,78744,,888-758-4389,E,,Public,24 hours daily,,,,,,2.0,,,ChargePoint Network,http://www.chargepoint.com/,GPS,30.192647,-97.714329,2023-10-30,99789,2023-10-30 00:22:53 UTC,,,,2018-07-18,,,,,J1772,US,,,,Public,,Public,,,,,,,,,,,,,,,,,,,,,,,,,,,,,False
13923,ELEC,7EAST 7EAST1,2025 E 7th St,,Austin,TX,78702,,888-758-4389,E,,Public,24 hours daily,,,,,,2.0,,,ChargePoint Network,http://www.chargepoint.com/,GPS,30.261602,-97.719623,2023-10-30,100327,2023-10-30 00:25:46 UTC,,,,2018-08-10,,,,,J1772,US,,,,Public,,Public,,,,,,,,,,,,,,,,,,,,,,,,,,,,,False
14388,ELEC,The Linc - Tesla Supercharger,6406 N. Interstate 35 Frontage Road,,Austin,TX,78752,,877-798-3752,E,,Public,24 hours daily,,,,,,,8.0,,Tesla,https://www.tesla.com/supercharger,GPS,30.329275,-97.706259,2023-07-01,102424,2023-07-14 19:41:28 UTC,P,,,2018-07-23,,,,,TESLA,US,,,,Public,,Public,,,,,,,,,,,,,,,,,,,,,,,,,,,,,False
14682,ELEC,PIE AE PUBDITTMAR1,1009 W Dittmar Rd,,Austin,TX,78745,,888-758-4389,E,,Public,24 hours daily,,,,,,2.0,,,ChargePoint Network,http://www.chargepoint.com/,GPS,30.185298,-97.801157,2023-10-30,103872,2023-10-30 00:26:12 UTC,,,,2018-10-05,,,,,J1772,US,,,,Public,,Public,,,,,,,,,,,,,,,,,,,,,,,,,,,,,False
14683,ELEC,PIE AE CONVENTION CTR3,201 E 2nd St,,Austin,TX,78701,,888-758-4389,E,,Public,24 hours daily,,,,,,2.0,,,ChargePoint Network,http://www.chargepoint.com/,GPS,30.26351,-97.742302,2023-10-30,103874,2023-10-30 00:26:10 UTC,,,,2018-10-05,,,,,J1772,US,,,,Public,,Public,,,,,,,,,,,,,,,,,,,,,,,,,,,,,False
14684,ELEC,PIE AE CONVENTION CTR1,201 E 2nd St,,Austin,TX,78701,,888-758-4389,E,,Public,24 hours daily,,,,,,2.0,,,ChargePoint Network,http://www.chargepoint.com/,GPS,30.263529,-97.742431,2023-10-30,103875,2023-10-30 00:26:10 UTC,,,,2018-10-05,,,,,J1772,US,,,,Public,,Public,,,,,,,,,,,,,,,,,,,,,,,,,,,,,False
14685,ELEC,PIE AE NWRECCENTER 1,2913 Marilyn Dr,,Austin,TX,78757,,888-758-4389,E,,Public,24 hours daily,,,,,,2.0,,,ChargePoint Network,http://www.chargepoint.com/,GPS,30.33403,-97.751448,2023-10-30,103877,2023-10-30 00:26:10 UTC,,,,2018-10-05,,,,,J1772,US,,,,Public,,Public,,,,,,,,,,,,,,,,,,,,,,,,,,,,,False
14687,ELEC,PIE AE NWRECCENTER 4,2913 Northland Dr,,Austin,TX,78757,,888-758-4389,E,,Public,24 hours daily,,,,,,2.0,,,ChargePoint Network,http://www.chargepoint.com/,GPS,30.333969,-97.751358,2023-10-30,103879,2023-10-30 00:26:07 UTC,,,,2018-10-05,,,,,J1772,US,,,,Public,,Public,,,,,,,,,,,,,,,,,,,,,,,,,,,,,False
14688,ELEC,PIE AE PUB M STATION 1,2906 E Martin Luther King Jr Blvd,,Austin,TX,78702,,888-758-4389,T,2023-10-22,TEMPORARILY UNAVAILABLE (Public),24 hours daily,,,,,,2.0,,,ChargePoint Network,http://www.chargepoint.com/,GPS,30.283043,-97.707983,2023-10-30,103880,2023-10-30 00:26:05 UTC,,,,2018-10-05,,,,,J1772,US,,,,TEMPORAIREMENT SUSPENDU (Public),,Public,,,,,,,,,,,,,,,,,,,,,,,,,,,,,False
14689,ELEC,PIE AE ROSEWOOD PARK1,1182 N Pleasant Valley Rd Rosewood Neighborho,,Austin,TX,78702,,888-758-4389,T,2023-10-30,TEMPORARILY UNAVAILABLE (Public),24 hours daily,,,,,,2.0,,,ChargePoint Network,http://www.chargepoint.com/,GPS,30.271704,-97.713959,2023-10-30,103881,2023-10-30 00:26:05 UTC,,,,2018-10-05,,,,,J1772,US,,,,TEMPORAIREMENT SUSPENDU (Public),,Public,,,,,,,,,,,,,,,,,,,,,,,,,,,,,False
14690,ELEC,PIE AE ANIMAL SERVICE5,7201 Levander Loop,,Austin,TX,78702,,888-758-4389,E,,Public,24 hours daily,,,,,,2.0,,,ChargePoint Network,http://www.chargepoint.com/,GPS,30.251587,-97.690788,2023-10-30,103882,2023-10-30 00:26:00 UTC,,,,2018-10-05,,,,,J1772,US,,,,Public,,Public,,,,,,,,,,,,,,,,,,,,,,,,,,,,,False
14691,ELEC,PIE AE ANIMAL SERVICE3,7201 Levander Loop,,Austin,TX,78721,,888-758-4389,E,,Public,24 hours daily,,,,,,2.0,,,ChargePoint Network,http://www.chargepoint.com/,GPS,30.251538,-97.690807,2023-10-30,103883,2023-10-30 00:25:59 UTC,,,,2018-10-05,,,,,J1772,US,,,,Public,,Public,,,,,,,,,,,,,,,,,,,,,,,,,,,,,False
14784,ELEC,4THANDCHARGE STATION1,1806 E 4th St,,Austin,TX,78702,,888-758-4389,E,,Public,24 hours daily,,,,,,2.0,,,ChargePoint Network,http://www.chargepoint.com/,GPS,30.260355,-97.723548,2023-10-30,104174,2023-10-30 00:22:10 UTC,,,,2018-10-16,,,,,J1772,US,,,,Public,,Public,,,,,,,,,,,,,,,,,,,,,,,,,,,,,False
14785,ELEC,4THANDCHARGE STATION 5,1800 E 4th St,,Austin,TX,78702,,888-758-4389,E,,Public,24 hours daily,,,,,,2.0,,,ChargePoint Network,http://www.chargepoint.com/,GPS,30.260389,-97.724234,2023-10-30,104175,2023-10-30 00:22:21 UTC,,,,2018-10-16,,,,,J1772,US,,,,Public,,Public,,,,,,,,,,,,,,,,,,,,,,,,,,,,,False
14858,ELEC,PARK PLAZA STATION2,115 Sandra muraida way,,Austin,TX,78703,,888-758-4389,E,,Public,24 hours daily,,,,,,2.0,,,ChargePoint Network,http://www.chargepoint.com/,GPS,30.267321,-97.754548,2023-10-30,104346,2023-10-30 00:26:00 UTC,,,,2018-10-24,,,,,J1772,US,,,,Public,,Public,,,,,,,,,,,,,,,,,,,,,,,,,,,,,False
14883,ELEC,PIE AE HOWSONBRCHLIBR1,2500 Exposition Blvd,,Austin,TX,78703,,888-758-4389,E,,Public,24 hours daily,,,,,,2.0,,,ChargePoint Network,http://www.chargepoint.com/,GPS,30.298412,-97.767959,2023-10-30,104461,2023-10-30 00:26:04 UTC,,,,2018-11-01,,,,,J1772,US,,,,Public,,Public,,,,,,,,,,,,,,,,,,,,,,,,,,,,,False
15018,ELEC,CITY VIEW STATION2,1120 S Capital of Texas Hwy,,Austin,TX,78746,,888-758-4389,E,,Public,24 hours daily,,,,,,2.0,,,ChargePoint Network,http://www.chargepoint.com/,GPS,30.283044,-97.824902,2023-10-30,104959,2023-10-30 00:26:34 UTC,,,,2018-11-28,,,,,J1772,US,,,,Public,,Public,,,,,,,,,,,,,,,,,,,,,,,,,,,,,False
15090,ELEC,NATIONAL INSTRU 23&24;,11500B N Mopac Expy,,Austin,TX,78759,,888-758-4389,E,,Public,24 hours daily,,,,,,2.0,,,ChargePoint Network,http://www.chargepoint.com/,GPS,30.407286,-97.727058,2023-10-30,105211,2023-10-30 00:25:40 UTC,,,,2018-12-12,,,,,J1772,US,,,,Public,,Public,,,,,,,,,,,,,,,,,,,,,,,,,,,,,False
15106,ELEC,1023HOLDING LLC SPRINGDALE GEN,1023 Springdale Rd,,Austin,TX,78721,,888-758-4389,T,2022-09-09,TEMPORARILY UNAVAILABLE (Public),24 hours daily,,,,,,1.0,,,ChargePoint Network,http://www.chargepoint.com/,GPS,30.26751,-97.693652,2023-10-30,105327,2023-10-30 00:26:34 UTC,,,,2018-12-15,,,,,J1772,US,,,,TEMPORAIREMENT SUSPENDU (Public),,Public,,,,,,,,,,,,,,,,,,,,,,,,,,,,,False
17869,ELEC,Lone Star Court - Tesla Destination,10901 Domain Dr,,Austin,TX,78758,,512-814-2625  877-798-3752,E,,Public,,,,,,,3.0,,,Tesla Destination,https://www.tesla.com/destination-charging,200-9,30.395197,-97.726426,2022-10-06,115631,2023-01-18 15:15:20 UTC,P,,,2015-04-07,,,,,J1772 TESLA,US,,,,Public,,Public,,,HOTEL,,,,,,,Free,,,,,,,,,,,,,,,,,,,False
17870,ELEC,Kimber Modern - Tesla Destination,110 The Circle,,Austin,TX,78704,,512-912-1046  877-798-3752,E,,Public,,,,,,,1.0,,,Tesla Destination,https://www.tesla.com/destination-charging,200-9,30.250091,-97.74843,2022-10-06,115632,2023-01-18 15:15:20 UTC,P,,,2016-08-31,,,,,TESLA,US,,,,Public,,Public,,,HOTEL,,,,,,,Free,,,,,,,,,,,,,,,,,,,False
17871,ELEC,Homewood Suites Austin/ Tech Ridge - Tesla Destination,13001 Center Lake Dr,,Austin,TX,78753,,512-989-1100  877-798-3752,E,,Public,,,,,,,2.0,,,Tesla Destination,https://www.tesla.com/destination-charging,200-9,30.408205,-97.666596,2022-10-06,115635,2023-01-18 15:15:20 UTC,P,,,2015-12-03,,,,,TESLA,US,,,,Public,,Public,,,HOTEL,,,,,,,Free,,,,,,,,,,,,,,,,,,,False
17872,ELEC,Fairfield Inn & Suites by Marriott Austin - Tesla Destination,13087 N Research Blvd,,Austin,TX,78750,,512-258-4100  877-798-3752,E,,Public,,,,,,,3.0,,,Tesla Destination,https://www.tesla.com/destination-charging,200-9,30.440841,-97.779967,2022-10-06,115636,2023-01-18 15:15:20 UTC,P,,,2017-03-17,,,,,J1772 TESLA,US,,,,Public,,Public,,,HOTEL,,,,,,,Free,,,,,,,,,,,,,,,,,,,False
17873,ELEC,Hotel San Jose - Tesla Destination,1316 S Congress Ave,,Austin,TX,78704,,512-852-2350  877-798-3752,E,,Public,,,,,,,2.0,,,Tesla Destination,https://www.tesla.com/destination-charging,200-9,30.250541,-97.749422,2022-10-06,115637,2023-01-18 15:15:20 UTC,P,,,2017-02-23,,,,,J1772 TESLA,US,,,,Public,,Public,,,HOTEL,,,,,,,Free,,,,,,,,,,,,,,,,,,,False
17874,ELEC,Travaasa Austin Resort & Spa - Tesla Destination,13500 Farm to Market Rd 2769,,Austin,TX,78726,,512-258-7243  877-798-3752,E,,Public,,,,,,,2.0,,,Tesla Destination,https://www.tesla.com/destination-charging,200-9,30.44599,-97.868845,2022-10-06,115638,2023-01-18 15:15:20 UTC,P,,,2015-03-05,,,,,J1772 TESLA,US,,,,Public,,Public,,,HOTEL,,,,,,,Free,,,,,,,,,,,,,,,,,,,False
17875,ELEC,Lake Austin Spa Resort - Tesla Destination,1705 S Quinlan Park Rd,,Austin,TX,78732,,512-372-7300  877-798-3752,E,,Public,,,,,,,3.0,,,Tesla Destination,https://www.tesla.com/destination-charging,200-9,30.3272668,-97.9254155,2022-10-06,115639,2023-01-18 15:15:20 UTC,P,,,2014-12-11,,,,,J1772 TESLA,US,,,,Public,,Public,,,HOTEL,,,,,,,Free,,,,,,,,,,,,,,,,,,,False
17876,ELEC,Hotel Ella - Tesla Destination,1900 Rio Grande St,,Austin,TX,78705,,512-495-1800  877-798-3752,E,,Public,,,,,,,2.0,,,Tesla Destination,https://www.tesla.com/destination-charging,200-9,30.283018,-97.745736,2022-10-06,115641,2023-01-18 15:15:20 UTC,P,,,2014-11-18,,,,,TESLA,US,,,,Public,,Public,,,HOTEL,,,,,,,Free,,,,,,,,,,,,,,,,,,,False
17877,ELEC,W Austin Hotel & Residences - Tesla Destination,200 Lavaca St,,Austin,TX,78701,,512-542-3600  877-798-3752,E,,Public,,,,,,,6.0,,,Tesla Destination,https://www.tesla.com/destination-charging,200-9,30.265397,-97.746566,2022-10-06,115642,2023-01-18 15:15:20 UTC,P,,,2015-01-23,,,,,TESLA,US,,,,Public,,Public,,,HOTEL,,,,,,,Free,,,,,,,,,,,,,,,,,,,False
17878,ELEC,Hyatt Regency Austin - Tesla Destination,208 Barton Springs Rd,,Austin,TX,78704,,512-477-1234  877-798-3752,E,,Public,,,,,,,3.0,,,Tesla Destination,https://www.tesla.com/destination-charging,200-8,30.259012,-97.747352,2022-10-06,115643,2023-01-18 15:15:20 UTC,P,,,2014-06-25,,,,,TESLA,US,,,,Public,,Public,,,HOTEL,,,,,,,Free,,,,,,,,,,,,,,,,,,,False
17879,ELEC,Home2 Suites by Hilton Austin North - Tesla Destination,2800 Esperanza Crossing,,Austin,TX,78758,,512-339-2400  877-798-3752,E,,Public,,,,,,,5.0,,,Tesla Destination,https://www.tesla.com/destination-charging,200-9,30.398309,-97.719381,2022-10-06,115644,2023-01-18 15:15:20 UTC,P,,,2016-05-02,,,,,J1772 TESLA,US,,,,Public,,Public,,,HOTEL,,,,,,,Free,,,,,,,,,,,,,,,,,,,False
17880,ELEC,Austin Terrier - Tesla Destination,3435 Greystone Dr,,Austin,TX,78731,,512-369-3751  877-798-3752,E,,Public,,,,,,,3.0,,,Tesla Destination,https://www.tesla.com/destination-charging,200-9,30.357106,-97.74863,2022-10-06,115645,2023-01-18 15:15:20 UTC,P,,,2016-11-28,,,,,J1772 TESLA,US,,,,Public,,Public,,,RESTAURANT,,,,,,,Free,,,,,,,,,,,,,,,,,,,False
17882,ELEC,Atlantic Aviation - Austin - Tesla Destination,4309 Emma Browning Ave,,Austin,TX,78719,,512-382-8810  877-798-3752,E,,Public,,,,,,,3.0,,,Tesla Destination,https://www.tesla.com/destination-charging,200-9,30.188007,-97.663024,2022-10-06,115647,2023-01-18 15:15:20 UTC,P,,,2016-05-02,,,,,J1772 TESLA,US,,,,Public,,Public,,,AIRPORT,,,,,,,Free,,,,,,,,,,,,,,,,,,,False
17883,ELEC,TownePlace Suites Austin Round Rock - Tesla Destination,541 Parker Dr,,Austin,TX,78728,,512-255-0600  877-798-3752,E,,Public,,,,,,,3.0,,,Tesla Destination,https://www.tesla.com/destination-charging,200-9,30.477825,-97.680383,2022-10-06,115648,2023-01-18 15:15:20 UTC,P,,,2018-05-10,,,,,TESLA,US,,,,Public,,Public,,,HOTEL,,,,,,,Free,,,,,,,,,,,,,,,,,,,False
17884,ELEC,Kimpton Hotel Van Zandt - Tesla Destination,605 Davis St,,Austin,TX,78701,,512-542-5300  877-798-3752,E,,Public,,,,,,,2.0,,,Tesla Destination,https://www.tesla.com/destination-charging,200-9,30.259977,-97.739149,2022-10-06,115649,2023-01-18 15:15:20 UTC,P,,,2017-04-04,,,,,TESLA,US,,,,Public,,Public,,,HOTEL,,,,,,,Free,,,,,,,,,,,,,,,,,,,False
17885,ELEC,InterContinental Stephen F Austin Hotel - Tesla Destination,701 Congress Ave,,Austin,TX,78701,,512-457-8800  877-798-3752,E,,Public,,,,,,,4.0,,,Tesla Destination,https://www.tesla.com/destination-charging,200-9,30.269491,-97.742266,2022-10-06,115650,2023-01-18 15:15:20 UTC,P,,,2015-08-31,,,,,J1772 TESLA,US,,,,Public,,Public,,,HOTEL,,,,,,,Free,,,,,,,,,,,,,,,,,,,False
17886,ELEC,Rudy's Country Store and BBQ Austin - Tesla Destination,7709 Ranch Rd 620,,Austin,TX,78732,,512-250-8002  877-798-3752,E,,Public,,,,,,,3.0,,,Tesla Destination,https://www.tesla.com/destination-charging,GPS,30.410666,-97.849318,2022-10-06,115651,2023-01-18 15:15:20 UTC,P,,,2016-02-16,,,,,J1772 TESLA,US,,,,Public,,Public,,,RESTAURANT,,,,,,,Free,,,,,,,,,,,,,,,,,,,False
17887,ELEC,Omni Barton Creek Resort - Tesla Destination,8212 Barton Club Dr,,Austin,TX,78735,,512-329-4000  877-798-3752,E,,Public,,,,,,,3.0,,,Tesla Destination,https://www.tesla.com/destination-charging,200-9,30.291085,-97.858717,2022-10-06,115652,2023-01-18 15:15:20 UTC,P,,,2016-04-07,,,,,J1772 TESLA,US,,,,Public,,Public,,,HOTEL,,,,,,,Free,,,,,,,,,,,,,,,,,,,False
17888,ELEC,Renaissance Austin Hotel - Tesla Destination,9721 Arboretum Blvd,,Austin,TX,78759,,512-343-2626  877-798-3752,E,,Public,,,,,,,5.0,,,Tesla Destination,https://www.tesla.com/destination-charging,200-9,30.392202,-97.750038,2022-10-06,115655,2023-01-18 15:15:20 UTC,P,,,2018-05-07,,,,,J1772 TESLA,US,,,,Public,,Public,,,HOTEL,,,,,,,Free,,,,,,,,,,,,,,,,,,,False
17889,ELEC,Four Seasons Hotel Austin - Tesla Destination,98 San Jacinto Blvd,,Austin,TX,78701,,512-475-4500  877-798-3752,E,,Public,,,,,,,3.0,,,Tesla Destination,https://www.tesla.com/destination-charging,200-9,30.26197,-97.742421,2022-10-06,115656,2023-01-18 15:15:20 UTC,P,,,2015-11-03,,,,,J1772 TESLA,US,,,,Public,,Public,,,HOTEL,,,,,,,Free,,,,,,,,,,,,,,,,,,,False
17890,ELEC,Westin Austin Downtown - Tesla Destination,310 E 5th St,,Austin,TX,78701,,512-391-2333  877-798-3752,E,,Public,,,,,,,3.0,,,Tesla Destination,https://www.tesla.com/destination-charging,200-9,30.26662,-97.740375,2022-10-06,115658,2023-01-18 15:15:20 UTC,P,,,2017-09-08,,,,,TESLA,US,,,,Public,,Public,,,HOTEL,,,,,,,Free,,,,,,,,,,,,,,,,,,,False
17903,ELEC,La Quinta Inn & Suites Austin - Cedar Park - Tesla Destination,1010 E Whitestone Blvd,,Cedar Park,TX,78613,,512-528-9300  877-798-3752,E,,Public,,,,,,,3.0,,,Tesla Destination,https://www.tesla.com/destination-charging,200-9,30.524131,-97.817548,2022-10-06,115677,2023-01-18 15:15:20 UTC,P,,,2017-10-31,,,,,J1772 TESLA,US,,,,Public,,Public,,,HOTEL,,,,,,,Free,,,,,,,,,,,,,,,,,,,False
18033,ELEC,Home2 Suites by Hilton Round Rock - Tesla Destination,1000 W Louis Henna Blvd,,Round Rock,TX,78681,,512-255-7000  877-798-3752,E,,Public,,,,,,,2.0,,,Tesla Destination,https://www.tesla.com/destination-charging,200-9,30.479799,-97.686671,2022-10-06,115818,2023-01-18 15:15:20 UTC,P,,,2016-01-11,,,,,TESLA,US,,,,Public,,Public,,,HOTEL,,,,,,,Free,,,,,,,,,,,,,,,,,,,False
18071,ELEC,Whisper Valley Amenity and Discovery Center - Tesla Destination,9400 Petrichor Blvd,,Whisper Valley,TX,78653,,512-615-8819  877-798-3752,E,,Public,,,,,,,2.0,,,Tesla Destination,https://www.tesla.com/destination-charging,200-9,30.293072,-97.555372,2022-10-06,115858,2023-01-18 15:15:20 UTC,P,,,2017-10-10,,,,,TESLA,US,,,,Public,,Public,,,SHOPPING_CENTER,,,,,,,Free,,,,,,,,,,,,,,,,,,,False
18758,ELEC,835 CHARGER STATION1,800 W 6th St,,Austin,TX,78701,,888-758-4389,E,,Public,24 hours daily,,,,,,2.0,,,ChargePoint Network,http://www.chargepoint.com/,GPS,30.270815,-97.750664,2023-10-30,117704,2023-10-30 00:27:48 UTC,,,,2019-02-06,,,,,J1772,US,,,,Public,,Public,,,,,,,,,,,,,,,,,,,,,,,,,,,,,False
18900,ELEC,PIE AE SMART CHARGE 1,2016 Centimeter Cir,,Austin,TX,78758,,888-758-4389,E,,Public,24 hours daily,,,,,,2.0,,,ChargePoint Network,http://www.chargepoint.com/,GPS,30.381571,-97.713503,2023-10-30,119022,2023-10-30 00:28:35 UTC,,,,2019-03-08,,,,,J1772,US,,,,Public,,Public,,,,,,,,,,,,,,,,,,,,,,,,,,,,,False
18941,ELEC,1801 E 6TH AUSTIN 1801 1,1805 E 6th St,,Austin,TX,78702,,888-758-4389,E,,Public,24 hours daily,,,,,,2.0,,,ChargePoint Network,http://www.chargepoint.com/,GPS,30.261687,-97.723468,2023-10-30,120860,2023-10-30 00:28:49 UTC,,,,2019-03-15,,,,,J1772,US,,,,Public,,Public,,,,,,,,,,,,,,,,,,,,,,,,,,,,,False
19020,ELEC,PIE AE PUBLIFEWORKSST1,835 N Pleasant Valley Rd,,Austin,TX,78702,,888-758-4389,E,,Public,24 hours daily,,,,,,2.0,,,ChargePoint Network,http://www.chargepoint.com/,GPS,30.264685,-97.707837,2023-10-30,121125,2023-10-30 00:28:10 UTC,,,,2019-04-03,,,,,J1772,US,,,,Public,,Public,,,,,,,,,,,,,,,,,,,,,,,,,,,,,False
19025,ELEC,AVIATION 5TH FLOOR,3201 Presidential Blvd,,Austin,TX,78719,,888-758-4389,E,,Public,24 hours daily,,,,,,2.0,,,ChargePoint Network,http://www.chargepoint.com/,GPS,30.204665,-97.669632,2023-10-30,121218,2023-10-30 00:31:58 UTC,,,,2019-04-05,,,,,J1772,US,,,,Public,,Public,,,,,,,,,,,,,,,,,,,,,,,,,,,,,False
19256,ELEC,Round Rock Premium Outlets,4401 N. I-35,,Round Rock,TX,78664,,833-632-2778,E,,Public,24 hours daily,,,,,,,10.0,,Electrify America,https://www.electrifyamerica.com/,GPS,30.56638,-97.6916,2023-10-30,121841,2023-10-30 01:19:38 UTC,,,,2019-04-26,,,,,CHADEMO J1772COMBO,US,,,,Public,,Public,,,,,,,,,,,,,,,,,,,,,,,,,,,,,False
19613,ELEC,Aloft Austin Northwest - Tesla Destination,14020 US Hwy 183,,Austin,TX,78717,,512-219-0267  877-798-3752,E,,Public,,,,,,,4.0,,,Tesla Destination,https://www.tesla.com/destination-charging,200-9,30.475146,-97.801817,2022-10-06,122549,2023-01-18 15:15:20 UTC,P,,,2018-06-05,,,,,TESLA,US,,,,Public,,Public,,,,,,,,,,Free,,,,,,,,,,,,,,,,,,,False
19614,ELEC,Lantana Place - Tesla Destination,7415 Southwest Pkwy,,Austin,TX,78735,,512-572-0770  877-798-3752,E,,Public,,,,,,,4.0,,,Tesla Destination,https://www.tesla.com/destination-charging,200-9,30.256871,-97.872615,2022-10-06,122550,2023-01-18 15:15:20 UTC,P,,,2018-10-17,,,,,TESLA,US,,,,Public,,Public,,,,,,,,,,Free,,,,,,,,,,,,,,,,,,,False
19615,ELEC,North Austin Rock Gym - Tesla Destination,8300 N Lamar Blvd,,Austin,TX,78753,,512-416-9299  877-798-3752,E,,Public,,,,,,,2.0,,,Tesla Destination,https://www.tesla.com/destination-charging,200-9,30.352669,-97.70974,2022-10-06,122551,2023-01-18 15:15:20 UTC,P,,,2015-04-27,,,,,TESLA,US,,,,Public,,Public,,,,,,,,,,Free,,,,,,,,,,,,,,,,,,,False
19616,ELEC,Luxury Auto Works - Tesla Destination,8300 N Lamar Blvd,,Austin,TX,78753,,512-740-6983  877-798-3752,E,,Public,,,,,,,1.0,,,Tesla Destination,https://www.tesla.com/destination-charging,200-9,30.352052,-97.708054,2022-10-06,122552,2023-01-18 15:15:20 UTC,P,,,2015-04-28,,,,,TESLA,US,,,,Public,,Public,,,,,,,,,,Free,,,,,,,,,,,,,,,,,,,False
19627,ELEC,Rudy's Country Store & BBQ Round Rock - Tesla Destination,2400 N Interstate Hwy 35,,Round Rock,TX,78681,,512-244-2936  877-798-3752,E,,Public,,,,,,,3.0,,,Tesla Destination,https://www.tesla.com/destination-charging,200-9,30.536496,-97.693784,2022-10-06,122565,2023-01-18 15:15:20 UTC,P,,,2016-02-16,,,,,J1772 TESLA,US,,,,Public,,Public,,,,,,,,,,Free,,,,,,,,,,,,,,,,,,,False
19647,ELEC,THE CLARK THE CLARK 2,1301 W 5th St,,Austin,TX,78703,,888-758-4389,E,,Public,24 hours daily,,,,,,2.0,,,ChargePoint Network,http://www.chargepoint.com/,GPS,30.271779,-97.759735,2023-10-30,122615,2023-10-30 00:29:28 UTC,,,,2019-05-04,,,,,J1772,US,,,,Public,,Public,,,,,,,,,,,,,,,,,,,,,,,,,,,,,False
19648,ELEC,THE CLARK THE CLARK 1,1301 W 5th St,,Austin,TX,78703,,888-758-4389,E,,Public,24 hours daily,,,,,,2.0,,,ChargePoint Network,http://www.chargepoint.com/,GPS,30.271829,-97.759647,2023-10-30,122618,2023-10-30 00:26:03 UTC,,,,2019-05-04,,,,,J1772,US,,,,Public,,Public,,,,,,,,,,,,,,,,,,,,,,,,,,,,,False
20095,ELEC,16 OAKVILLE APTS,7011 W Parmer Ln,,Austin,TX,78729,,888-758-4389,E,,Public,24 hours daily,,,,,,2.0,,,ChargePoint Network,http://www.chargepoint.com/,GPS,30.450758,-97.749282,2023-10-30,123620,2023-10-30 00:30:30 UTC,,,,2019-06-08,,,,,J1772,US,,,,Public,,Public,,,,,,,,,,,,,,,,,,,,,,,,,,,,,False
20446,ELEC,PIE AE TECHNICENTER1,4101 Ed Bluestein Blvd,,Austin,TX,78721,,888-758-4389,E,,Public,24 hours daily,,,,,,2.0,,,ChargePoint Network,http://www.chargepoint.com/,GPS,30.276909,-97.666756,2023-10-30,143332,2023-10-30 00:31:34 UTC,,,,2019-08-15,,,,,J1772,US,,,,Public,,Public,,,,,,,,,,,,,,,,,,,,,,,,,,,,,False
20467,ELEC,BRANDYWINE AUST FOUR POINTS 2,11120 4 Points Dr,,Austin,TX,78726,,888-758-4389,E,,Public,24 hours daily,,,,,,2.0,,,ChargePoint Network,http://www.chargepoint.com/,GPS,30.405365,-97.848098,2023-10-30,143375,2023-10-30 00:31:26 UTC,,,,2019-08-15,,,,,J1772,US,,,,Public,,Public,,,,,,,,,,,,,,,,,,,,,,,,,,,,,False
20515,ELEC,ACC-AE RIO GRANDE GAR2,824 W 12th St,,Austin,TX,78701,,888-758-4389,T,2023-09-10,TEMPORARILY UNAVAILABLE (Public),24 hours daily,,,,,,2.0,,,ChargePoint Network,http://www.chargepoint.com/,GPS,30.276423,-97.749389,2023-10-30,143470,2023-10-30 00:30:58 UTC,,,,2019-08-15,,,,,J1772,US,,,,TEMPORAIREMENT SUSPENDU (Public),,Public,,,,,,,,,,,,,,,,,,,,,,,,,,,,,False
20547,ELEC,BLOCK 24 STATION 1,301 West Avenue,,Austin,TX,78701,,888-758-4389,E,,Public,24 hours daily,,,,,,2.0,,,ChargePoint Network,http://www.chargepoint.com/,GPS,30.267965,-97.75092,2023-10-30,143530,2023-10-30 00:30:39 UTC,,,,2019-08-15,,,,,J1772,US,,,,Public,,Public,,,,,,,,,,,,,,,,,,,,,,,,,,,,,False
20578,ELEC,COPELAND STATION1,2511 W Braker Ln,,Austin,TX,78758,,888-758-4389,E,,Public,24 hours daily,,,,,,2.0,,,ChargePoint Network,http://www.chargepoint.com/,GPS,30.389507,-97.718895,2023-10-30,143583,2023-10-30 00:29:13 UTC,,,,2019-08-15,,,,,J1772,US,,,,Public,,Public,,,,,,,,,,,,,,,,,,,,,,,,,,,,,False
20931,ELEC,Kealing Middle School,1607 Pennsylvania Ave,,Austin,TX,78702,,512-414-3214,E,,Public - Call ahead,After school hours only,,,,,,1.0,,,Non-Networked,,200-9,30.271041,-97.721917,2022-05-05,145173,2023-02-14 15:54:11 UTC,P,,,2018-11-14,,,,,J1772,US,,,,Public - Appeler à l'avance,,Public,CALL,,SCHOOL,,,,,,,$4.17 per month through Austin Energy’s Plug-In EVerywhere℠ program,,,,,,,,,WIND,False,,,,,,,,MD,False
20932,ELEC,AISD Performing Arts Center,1500 Barbara Jordan Blvd,,Austin,TX,78723,,512-414-4761,E,,Public - Call ahead,After school hours only,,,,,,5.0,,,Non-Networked,,200-9,30.304121,-97.702978,2022-06-14,145177,2023-02-14 15:54:11 UTC,P,,,2018-11-14,,,,,J1772,US,,,,Public - Appeler à l'avance,,Public,CALL,,OTHER_ENTERTAINMENT,,,,,,,$4.17 per month through Austin Energy’s Plug-In EVerywhere℠ program,,,,,,,,,,False,,,,,,,,LD,False
20933,ELEC,Toney Burger Activity Center and Stadium,3200 Jones Rd,,Austin,TX,78745,,512-414-1050,E,,Public - Call ahead,After school hours only,,,,,,1.0,,,Non-Networked,,200-9,30.230583,-97.809767,2022-06-14,145178,2023-02-14 15:54:11 UTC,P,,,2018-11-14,,,,,J1772,US,,,,Public - Appeler à l'avance,,Public,CALL,,ARENA,,,,,,,$4.17 per month through Austin Energy’s Plug-In EVerywhere℠ program,,,,,,,,,,False,,,,,,,,LD,False
20975,ELEC,365 Cedar Park,5001 183A Toll Rd,,Cedar Park,TX,78613,,888-264-2208,E,,Public,Mon 5:00am - 10:59pm; Tue 5:00am - 10:59pm; Wed 5:00am - 10:59pm; Thu 5:00am - 10:59pm; Fri 5:00am - 10:59pm; Sat 5:00am - 10:59pm; Sun 5:00am - 10:59pm,,,,,,3.0,,,Volta,https://voltacharging.com/,GPS,30.535462333,-97.817790733,2023-10-30,145270,2023-10-30 01:26:39 UTC,,,,2019-09-01,,,,,J1772,US,,,,Public,,Public,,,,,,,,,,,,,,,,,,,,False,,,,,,,,,False
21009,ELEC,70 RAINEY DC250 DC250,70 Rainey St,,Austin,TX,78701,,888-758-4389,E,,Public,24 hours daily,,,,,,,1.0,,ChargePoint Network,http://www.chargepoint.com/,GPS,30.258581,-97.738748,2023-10-30,145341,2023-10-30 00:29:59 UTC,,,,2019-09-18,,,,,CHADEMO J1772COMBO,US,,,,Public,,Public,,,,,,,,,,,,,,,,,,,,,,,,,,,,,False
21013,ELEC,NEIGHBORHOOD HO 912 E11TH STAT1,901 Juniper St,,Austin,TX,78702,,888-758-4389,E,,Public,24 hours daily,,,,,,2.0,,,ChargePoint Network,http://www.chargepoint.com/,GPS,30.270384,-97.73108,2023-10-30,145361,2023-10-30 00:33:05 UTC,,,,2019-09-19,,,,,J1772,US,,,,Public,,Public,,,,,,,,,,,,,,,,,,,,,,,,,,,,,False
21073,ELEC,PARMER AUSTIN PIC #2,13011c McCallen Pass,,Austin,TX,78753,,888-758-4389,E,,Public,24 hours daily,,,,,,2.0,,,ChargePoint Network,http://www.chargepoint.com/,GPS,30.409913,-97.657751,2023-10-30,145512,2023-10-30 00:31:38 UTC,,,,2019-09-25,,,,,J1772,US,,,,Public,,Public,,,,,,,,,,,,,,,,,,,,,,,,,,,,,False
21179,ELEC,BUILDING 7 EVCS STATION1,909 Reinli St,,Austin,TX,78751,,888-758-4389,E,,Public,24 hours daily,,,,,,2.0,,,ChargePoint Network,http://www.chargepoint.com/,GPS,30.318426,-97.71069,2023-10-30,146662,2023-10-30 00:33:32 UTC,,,,2019-10-08,,,,,J1772,US,,,,Public,,Public,,,,,,,,,,,,,,,,,,,,,,,,,,,,,False
21188,ELEC,Plaza on the Lake,5001 Plaza on the Lake,,Austin,TX,78746,,,E,,Public,24 hours daily,,,,,,2.0,,,Non-Networked,,GPS,30.34747,-97.80102,2022-07-12,146713,2023-02-14 15:54:11 UTC,P,,,2019-09-01,,,,,J1772,US,,,,Public,,Public,,,OFFICE_BLDG,,,,,,,Free,,,,,,,,,,False,,,,,,,,MD,False
21212,ELEC,PARMER AUSTIN STATION PIC 4,10311 McCallen Pass,,Austin,TX,78753,,888-758-4389,E,,Public,24 hours daily,,,,,,2.0,,,ChargePoint Network,http://www.chargepoint.com/,GPS,30.411955,-97.652813,2023-10-30,146807,2023-10-30 00:30:47 UTC,,,,2019-10-11,,,,,J1772,US,,,,Public,,Public,,,,,,,,,,,,,,,,,,,,,,,,,,,,,False
21343,ELEC,PIE AE TRAVIS CO L2,316 W 8th St,,Austin,TX,78701,,888-758-4389,E,,Public,24 hours daily,,,,,,1.0,,,ChargePoint Network,http://www.chargepoint.com/,GPS,30.270944,-97.744761,2023-10-30,147186,2023-10-30 00:34:27 UTC,,,,2019-10-24,,,,,J1772,US,,,,Public,,Public,,,,,,,,,,,,,,,,,,,,,,,,,,,,,False
21417,ELEC,FOUNDRY STATION 1,310 Comal St,,Austin,TX,78702,,888-758-4389,E,,Public,24 hours daily,,,,,,2.0,,,ChargePoint Network,http://www.chargepoint.com/,GPS,30.261032,-97.727974,2023-10-30,147431,2023-10-30 00:33:13 UTC,,,,2019-11-01,,,,,J1772,US,,,,Public,,Public,,,,,,,,,,,,,,,,,,,,,,,,,,,,,False
21419,ELEC,COLONIAL CTR HR STATION 1,607 W 3rd St,,Austin,TX,78703,,888-758-4389,E,,Public,24 hours daily,,,,,,2.0,,,ChargePoint Network,http://www.chargepoint.com/,GPS,30.266521,-97.75022,2023-10-30,147433,2023-10-30 00:21:33 UTC,,,,2019-11-01,,,,,J1772,US,,,,Public,,Public,,,,,,,,,,,,,,,,,,,,,,,,,,,,,False
22023,ELEC,Windsor South Lamar,809 S. Lamar Blvd.,The stations on the main floor of the parking garage.,Austin,TX,78704,,800-663-5633,T,2022-11-02,TEMPORARILY UNAVAILABLE (Public),24 hours daily,,,,,,2.0,,,Blink Network,http://www.blinkcharging.com/,GPS,30.2572051,-97.7599259,2023-10-30,148850,2023-10-30 00:07:48 UTC,,,,2014-05-06,,,,,J1772,US,,,,TEMPORAIREMENT SUSPENDU (Public),,Public,,,,,,,,,,FREE,,,,,,,,,,,,,,,,,,,False
22024,ELEC,Windsor on the Lake,43 Rainey Street,Restricted Access: this location is open to residents only.,Austin,TX,78701,,800-663-5633,T,2022-09-09,TEMPORARILY UNAVAILABLE (Public),24 hours daily,,,,,,2.0,,,Blink Network,http://www.blinkcharging.com/,GPS,30.25602,-97.7396238,2023-10-30,148851,2023-10-30 00:04:52 UTC,,,,2014-07-15,,,,,J1772,US,,,,TEMPORAIREMENT SUSPENDU (Public),,Public,,,,,,,,,,FREE,,,,,,,,,,,,,,,,,,,False
22251,ELEC,Gateway Shopping Center - Tesla Supercharger,9607 Research Boulevard,,Austin,TX,78759,,877-798-3752,E,,Public,24 hours daily,,,,,,,18.0,,Tesla,https://www.tesla.com/supercharger,200-8,30.389267,-97.73974,2023-07-01,149292,2023-07-14 19:41:28 UTC,P,,,2019-09-30,,,,,TESLA,US,,,,Public,,Public,,,,,,,,,,,,,,,,,,,,,,,,,,,,,False
22345,ELEC,CREEKSIDE CREEKSIDE1,5401 E Parmer Ln,,Austin,TX,78653,,888-758-4389,E,,Public,24 hours daily,,,,,,2.0,,,ChargePoint Network,http://www.chargepoint.com/,GPS,30.369535,-97.61957,2023-10-30,149448,2023-10-30 00:25:40 UTC,,,,2019-11-23,,,,,J1772,US,,,,Public,,Public,,,,,,,,,,,,,,,,,,,,,,,,,,,,,False
22503,ELEC,LAS CIMAS4 LAS CIMAS #1,900 S Capital of Texas Hwy,,West Lake Hills,TX,78746,,888-758-4389,E,,Public,24 hours daily,,,,,,2.0,,,ChargePoint Network,http://www.chargepoint.com/,GPS,30.28771,-97.829448,2023-10-30,149756,2023-10-30 00:35:46 UTC,,,,2019-12-06,,,,,J1772,US,,,,Public,,Public,,,,,,,,,,,,,,,,,,,,,,,,,,,,,False
22588,ELEC,WEINSTEIN 3 FIVE,8003 S IH 35 Frontage Rd,,Austin,TX,78744,,888-758-4389,E,,Public,24 hours daily,,,,,,2.0,,,ChargePoint Network,http://www.chargepoint.com/,GPS,30.172599,-97.777067,2023-10-30,150004,2023-10-30 00:23:33 UTC,,,,2019-12-13,,,,,J1772,US,,,,Public,,Public,,,,,,,,,,,,,,,,,,,,,,,,,,,,,False
22766,ELEC,COA TWIN OAKS #1,1800 S 5th St,,Austin,TX,78704,,888-758-4389,E,,Public,24 hours daily,,,,,,2.0,,,ChargePoint Network,http://www.chargepoint.com/,GPS,30.248932,-97.762283,2023-10-30,150470,2023-10-30 00:35:53 UTC,,,,2019-12-21,,,,,J1772,US,,,,Public,,Public,,,,,,,,,,,,,,,,,,,,,,,,,,,,,False
23451,ELEC,7700 PARMER 7700 PARMER 3,7700 W PARMER LN,,Austin,TX,78729,,888-758-4389,E,,Public,24 hours daily,,,,,,2.0,,,ChargePoint Network,http://www.chargepoint.com/,GPS,30.458615,-97.752557,2023-10-30,152285,2023-10-30 00:34:05 UTC,,,,2020-01-08,,,,,J1772,US,,,,Public,,Public,,,,,,,,,,,,,,,,,,,,,,,,,,,,,False
23550,ELEC,ACC CYP STAT1,ACC Cypress Creek,,Cedar Park,TX,78613,,888-758-4389,E,,Public,24 hours daily,,,,,,2.0,,,ChargePoint Network,http://www.chargepoint.com/,GPS,30.479233,-97.8346,2023-10-30,152494,2023-10-30 00:36:44 UTC,,,,2020-01-17,,,,,J1772,US,,,,Public,,Public,,,,,,,,,,,,,,,,,,,,,,,,,,,,,False
23677,ELEC,PALOMA RIDGE PALOMA BDG C #3,13620 N FM 620,,Austin,TX,78717,,888-758-4389,E,,Public,24 hours daily,,,,,,2.0,,,ChargePoint Network,http://www.chargepoint.com/,GPS,30.477716,-97.779045,2023-10-30,152885,2023-10-30 00:37:07 UTC,,,,2020-01-23,,,,,J1772,US,,,,Public,,Public,,,,,,,,,,,,,,,,,,,,,,,,,,,,,False
23901,ELEC,ACC-AE NORTHRIDGE2,11928 Stonehollow,,Austin,TX,78758,,888-758-4389,E,,Public,24 hours daily,,,,,,2.0,,,ChargePoint Network,http://www.chargepoint.com/,GPS,30.404151,-97.705712,2023-10-30,153329,2023-10-30 00:32:45 UTC,,,,2020-02-06,,,,,J1772,US,,,,Public,,Public,,,,,,,,,,,,,,,,,,,,,,,,,,,,,False
24188,ELEC,LADERA BEND BUILDING 1,7300 Ranch Rd 2222,,Austin,TX,78750,,888-758-4389,E,,Public,24 hours daily,,,,,,2.0,,,ChargePoint Network,http://www.chargepoint.com/,GPS,30.373991,-97.802572,2023-10-30,154084,2023-10-30 00:21:27 UTC,,,,2020-02-27,,,,,J1772,US,,,,Public,,Public,,,,,,,,,,,,,,,,,,,,,,,,,,,,,False
24238,ELEC,CITY CEDAR PARK CP LIBRARY,550 Discovery Blvd,,Cedar Park,TX,78613,,888-758-4389,T,2023-10-10,TEMPORARILY UNAVAILABLE (Public),24 hours daily,,,,,,2.0,,,ChargePoint Network,http://www.chargepoint.com/,GPS,30.51841,-97.824717,2023-10-30,154178,2023-10-30 00:38:20 UTC,,,,2020-02-29,,,,,J1772,US,,,,TEMPORAIREMENT SUSPENDU (Public),,Public,,,,,,,,,,,,,,,,,,,,,,,,,,,,,False
24239,ELEC,CITY CEDAR PARK CP REC CENTER,1435 Main St,,Cedar Park,TX,78613,,888-758-4389,E,,Public,24 hours daily,,,,,,2.0,,,ChargePoint Network,http://www.chargepoint.com/,GPS,30.52763,-97.824967,2023-10-30,154179,2023-10-30 00:38:18 UTC,,,,2020-02-29,,,,,J1772,US,,,,Public,,Public,,,,,,,,,,,,,,,,,,,,,,,,,,,,,False
24240,ELEC,CITY CEDAR PARK CP CITY HALL,500 Cypress Creek Road,,Cedar Park,TX,78613,,888-758-4389,E,,Public,24 hours daily,,,,,,2.0,,,ChargePoint Network,http://www.chargepoint.com/,GPS,30.49578,-97.821963,2023-10-30,154180,2023-10-30 00:38:18 UTC,,,,2020-02-29,,,,,J1772,US,,,,Public,,Public,,,,,,,,,,,,,,,,,,,,,,,,,,,,,False
24598,ELEC,REPUBLICSQUARE GABLES REPUB4,219 W 4th St,,Austin,TX,78701,,888-758-4389,E,,Public,24 hours daily,,,,,,2.0,,,ChargePoint Network,http://www.chargepoint.com/,GPS,30.266802,-97.74575,2023-10-30,155137,2023-10-30 00:37:59 UTC,,,,2020-04-02,,,,,J1772,US,,,,Public,,Public,,,,,,,,,,,,,,,,,,,,,,,,,,,,,False
24599,ELEC,REPUBLICSQUARE GABLES REPUB2,217B W 4th St,,Austin,TX,78701,,888-758-4389,E,,Public,24 hours daily,,,,,,2.0,,,ChargePoint Network,http://www.chargepoint.com/,GPS,30.26679,-97.74565,2023-10-30,155138,2023-10-30 00:37:58 UTC,,,,2020-04-02,,,,,J1772,US,,,,Public,,Public,,,,,,,,,,,,,,,,,,,,,,,,,,,,,False
24600,ELEC,REPUBLICSQUARE GABLES REPUB3,213 W 4th St,,Austin,TX,78701,,888-758-4389,E,,Public,24 hours daily,,,,,,2.0,,,ChargePoint Network,http://www.chargepoint.com/,GPS,30.266573,-97.74553,2023-10-30,155139,2023-10-30 00:37:58 UTC,,,,2020-04-02,,,,,J1772,US,,,,Public,,Public,,,,,,,,,,,,,,,,,,,,,,,,,,,,,False
24601,ELEC,REPUBLICSQUARE GABLES REPUB1,311 W 5th St,,Austin,TX,78701,,888-758-4389,E,,Public,24 hours daily,,,,,,2.0,,,ChargePoint Network,http://www.chargepoint.com/,GPS,30.267609,-97.746544,2023-10-30,155140,2023-10-30 00:37:24 UTC,,,,2020-04-02,,,,,J1772,US,,,,Public,,Public,,,,,,,,,,,,,,,,,,,,,,,,,,,,,False
24764,ELEC,PIE AE SALTILLO DCFC 4,901 E 5th St,,Austin,TX,78702,,888-758-4389,E,,Public,24 hours daily,,,,,,,1.0,,ChargePoint Network,http://www.chargepoint.com/,GPS,30.264185,-97.733688,2023-10-30,155494,2023-10-30 00:38:08 UTC,,,,2020-04-22,,,,,CHADEMO J1772COMBO,US,,,,Public,,Public,,,,,,,,,,,,,,,,,,,,,,,,,,,,,False
24788,ELEC,TERRA TERRA1,Unnamed Road,,Austin,TX,78744,,888-758-4389,E,,Public,24 hours daily,,,,,,2.0,,,ChargePoint Network,http://www.chargepoint.com/,GPS,30.170794,-97.77565,2023-10-30,155531,2023-10-30 00:39:06 UTC,,,,2020-04-23,,,,,J1772,US,,,,Public,,Public,,,,,,,,,,,,,,,,,,,,,,,,,,,,,False
24789,ELEC,TERRA TERRA2,15 Bridgeford Dr,,Austin,TX,78745,,888-758-4389,E,,Public,24 hours daily,,,,,,2.0,,,ChargePoint Network,http://www.chargepoint.com/,GPS,30.169432,-97.772125,2023-10-30,155532,2023-10-30 00:39:04 UTC,,,,2020-04-23,,,,,J1772,US,,,,Public,,Public,,,,,,,,,,,,,,,,,,,,,,,,,,,,,False
25126,ELEC,PIE AE PUBPEARSONH LN1,905 W Howard Ln,,Austin,TX,78753,,888-758-4389,E,,Public,24 hours daily,,,,,,2.0,,,ChargePoint Network,http://www.chargepoint.com/,GPS,30.416583,-97.666048,2023-10-30,156234,2023-10-30 00:40:02 UTC,,,,2020-05-13,,,,,J1772,US,,,,Public,,Public,,,,,,,,,,,,,,,,,,,,,,,,,,,,,False
28047,ELEC,DSMCUT EVSE05 FLOOR L3,501573 E 15th St,,Austin,TX,78701,,888-758-4389,E,,Public,24 hours daily,,,,,,2.0,,,ChargePoint Network,http://www.chargepoint.com/,GPS,30.275245,-97.734566,2023-10-30,162533,2023-10-30 00:21:00 UTC,,,,2020-06-12,,,,,J1772,US,,,,Public,,Public,,,,,,,,,,,,,,,,,,,,,,,,,,,,,False
28048,ELEC,DSMCUT EVSE08 G LEVEL,1305 Red River St,,Austin,TX,78701,,888-758-4389,E,,Public,24 hours daily,,,,,,2.0,,,ChargePoint Network,http://www.chargepoint.com/,GPS,30.275195,-97.734584,2023-10-30,162534,2023-10-30 00:20:59 UTC,,,,2020-06-12,,,,,J1772,US,,,,Public,,Public,,,,,,,,,,,,,,,,,,,,,,,,,,,,,False
28049,ELEC,100 CONGRESS STATION 1,100 Congress Ave,,Austin,TX,78701,,888-758-4389,T,2022-09-09,TEMPORARILY UNAVAILABLE (Public),24 hours daily,,,,,,2.0,,,ChargePoint Network,http://www.chargepoint.com/,GPS,30.26396,-97.744801,2023-10-30,162535,2023-10-30 00:20:56 UTC,,,,2020-06-12,,,,,J1772,US,,,,TEMPORAIREMENT SUSPENDU (Public),,Public,,,,,,,,,,,,,,,,,,,,,,,,,,,,,False
28050,ELEC,PIE AE CITY HALL STAT1,400 W 2nd St,,Austin,TX,78701,,888-758-4389,E,,Public,24 hours daily,,,,,,2.0,,,ChargePoint Network,http://www.chargepoint.com/,GPS,30.264942,-97.746925,2023-10-30,162538,2023-10-30 00:20:41 UTC,,,,2020-06-12,,,,,J1772,US,,,,Public,,Public,,,,,,,,,,,,,,,,,,,,,,,,,,,,,False
28051,ELEC,PIE AE PUBAMLI1,401-499 W 3rd St,,Austin,TX,78701,,888-758-4389,E,,Public,24 hours daily,,,,,,2.0,,,ChargePoint Network,http://www.chargepoint.com/,GPS,30.266398,-97.747964,2023-10-30,162539,2023-10-30 00:20:41 UTC,,,,2020-06-12,,,,,J1772,US,,,,Public,,Public,,,,,,,,,,,,,,,,,,,,,,,,,,,,,False
28052,ELEC,PIE AE PUBGABLESPRESS1,1313 W 6th St,,Austin,TX,78703,,888-758-4389,E,,Public,24 hours daily,,,,,,2.0,,,ChargePoint Network,http://www.chargepoint.com/,GPS,30.273141,-97.759947,2023-10-30,162540,2023-10-30 00:20:40 UTC,,,,2020-06-12,,,,,J1772,US,,,,Public,,Public,,,,,,,,,,,,,,,,,,,,,,,,,,,,,False
28053,ELEC,PIE AE RUTHERFORDCAMP1,8301 Cameron Rd,,Austin,TX,78754,,888-758-4389,E,,Public,24 hours daily,,,,,,2.0,,,ChargePoint Network,http://www.chargepoint.com/,GPS,30.337138,-97.680658,2023-10-30,162541,2023-10-30 00:20:40 UTC,,,,2020-06-12,,,,,J1772,US,,,,Public,,Public,,,,,,,,,,,,,,,,,,,,,,,,,,,,,False
28054,ELEC,PIE AE PUB ACC NRIDGE1,11928 Stonehollow Dr,,Austin,TX,78758,,888-758-4389,E,,Public,24 hours daily,,,,,,2.0,,,ChargePoint Network,http://www.chargepoint.com/,GPS,30.404194,-97.705465,2023-10-30,162542,2023-10-30 00:20:40 UTC,,,,2020-06-12,,,,,J1772,US,,,,Public,,Public,,,,,,,,,,,,,,,,,,,,,,,,,,,,,False
28055,ELEC,PIE AE TACARASR1,4306 N Quinlan Park Rd,,Austin,TX,78732,,888-758-4389,E,,Public,24 hours daily,,,,,,2.0,,,ChargePoint Network,http://www.chargepoint.com/,GPS,30.385777,-97.886769,2023-10-30,162543,2023-10-30 00:20:40 UTC,,,,2020-06-12,,,,,J1772,US,,,,Public,,Public,,,,,,,,,,,,,,,,,,,,,,,,,,,,,False
28056,ELEC,PIE AE PUBGABLES 5TH 1,1611 W 5th St,,Austin,TX,78703,,888-758-4389,E,,Public,24 hours daily,,,,,,2.0,,,ChargePoint Network,http://www.chargepoint.com/,GPS,30.274209,-97.764758,2023-10-30,162544,2023-10-30 00:20:40 UTC,,,,2020-06-12,,,,,J1772,US,,,,Public,,Public,,,,,,,,,,,,,,,,,,,,,,,,,,,,,False
28057,ELEC,PIE AE PUBACCSVSCTRST1,9101 Exchange Dr,,Austin,TX,78754,,888-758-4389,E,,Public,24 hours daily,,,,,,2.0,,,ChargePoint Network,http://www.chargepoint.com/,GPS,30.338393,-97.662155,2023-10-30,162545,2023-10-30 00:20:40 UTC,,,,2020-06-12,,,,,J1772,US,,,,Public,,Public,,,,,,,,,,,,,,,,,,,,,,,,,,,,,False
28058,ELEC,PIE AE PUBACCSOAUSTIN1,5517 Manchaca Rd,,Austin,TX,78745,,888-758-4389,E,,Public,24 hours daily,,,,,,2.0,,,ChargePoint Network,http://www.chargepoint.com/,GPS,30.216019,-97.796332,2023-10-30,162546,2023-10-30 00:20:40 UTC,,,,2020-06-12,,,,,J1772,US,,,,Public,,Public,,,,,,,,,,,,,,,,,,,,,,,,,,,,,False
28059,ELEC,PIE AE PUB ACC EVIEW1,3401 Webberville Rd,,Austin,TX,78702,,888-758-4389,E,,Public,24 hours daily,,,,,,2.0,,,ChargePoint Network,http://www.chargepoint.com/,GPS,30.268116,-97.706104,2023-10-30,162547,2023-10-30 00:20:40 UTC,,,,2020-06-12,,,,,J1772,US,,,,Public,,Public,,,,,,,,,,,,,,,,,,,,,,,,,,,,,False
28060,ELEC,PIE AE PUBACCHIGHLAND1,5930 Middle Fiskville Rd,,Austin,TX,78752,,888-758-4389,T,2023-10-19,TEMPORARILY UNAVAILABLE (Public),24 hours daily,,,,,,2.0,,,ChargePoint Network,http://www.chargepoint.com/,GPS,30.322654,-97.712743,2023-10-30,162548,2023-10-30 00:20:39 UTC,,,,2020-06-12,,,,,J1772,US,,,,TEMPORAIREMENT SUSPENDU (Public),,Public,,,,,,,,,,,,,,,,,,,,,,,,,,,,,False
28061,ELEC,PIE AE PUB-CENTRALMKTN,4001 N Lamar Blvd,,Austin,TX,78756,,888-758-4389,E,,Public,24 hours daily,,,,,,2.0,,,ChargePoint Network,http://www.chargepoint.com/,GPS,30.308484,-97.740767,2023-10-30,162549,2023-10-30 00:20:39 UTC,,,,2020-06-12,,,,,J1772,US,,,,Public,,Public,,,,,,,,,,,,,,,,,,,,,,,,,,,,,False
28062,ELEC,PIE AE PUBDENNYSNORTH1,1601 Interstate 35 Frontage Road,,Austin,TX,78702,,888-758-4389,E,,Public,24 hours daily,,,,,,2.0,,,ChargePoint Network,http://www.chargepoint.com/,GPS,30.276513,-97.729639,2023-10-30,162552,2023-10-30 00:20:39 UTC,,,,2020-06-12,,,,,J1772,US,,,,Public,,Public,,,,,,,,,,,,,,,,,,,,,,,,,,,,,False
28063,ELEC,PIE AE PUBACCRIVERSID1,1230-1290 Grove Blvd,,Austin,TX,78741,,888-758-4389,E,,Public,24 hours daily,,,,,,2.0,,,ChargePoint Network,http://www.chargepoint.com/,GPS,30.235093,-97.705194,2023-10-30,162554,2023-10-30 00:20:39 UTC,,,,2020-06-12,,,,,J1772,US,,,,Public,,Public,,,,,,,,,,,,,,,,,,,,,,,,,,,,,False
28064,ELEC,PIE AE PUB UTANTONIO 2,2420 San Antonio St,,Austin,TX,78705,,888-758-4389,E,,Public,24 hours daily,,,,,,2.0,,,ChargePoint Network,http://www.chargepoint.com/,GPS,30.288705,-97.742539,2023-10-30,162556,2023-10-30 00:20:38 UTC,,,,2020-06-12,,,,,J1772,US,,,,Public,,Public,,,,,,,,,,,,,,,,,,,,,,,,,,,,,False
28065,ELEC,PIE AE PUB-CENTRALMKTS,4477 S Lamar Blvd,,Austin,TX,78745,,888-758-4389,E,,Public,24 hours daily,,,,,,2.0,,,ChargePoint Network,http://www.chargepoint.com/,GPS,30.232256,-97.798438,2023-10-30,162557,2023-10-30 00:20:38 UTC,,,,2020-06-12,,,,,J1772,US,,,,Public,,Public,,,,,,,,,,,,,,,,,,,,,,,,,,,,,False
28067,ELEC,PIE AE AUS AIRPORT DC2,2901 Spirit of Texas Dr,,Austin,TX,78719,,888-758-4389,E,,Public,24 hours daily,,,,,,,1.0,,ChargePoint Network,http://www.chargepoint.com/,GPS,30.210671,-97.667628,2023-10-30,162560,2023-10-30 00:42:55 UTC,,,,2020-06-12,,,,,CHADEMO J1772COMBO,US,,,,Public,,Public,,,,,,,,,,,,,,,,,,,,,,,,,,,,,False
28068,ELEC,FASTPARK AUS 2,2300 Spirit of Texas Dr,,Austin,TX,78617,,888-758-4389,E,,Public,24 hours daily,,,,,,2.0,,,ChargePoint Network,http://www.chargepoint.com/,GPS,30.218294,-97.661946,2023-10-30,162561,2023-10-30 00:20:25 UTC,,,,2020-06-12,,,,,J1772,US,,,,Public,,Public,,,,,,,,,,,,,,,,,,,,,,,,,,,,,False
28072,ELEC,PIE AE PUBGABLESPRESS2,507 Pressler St,,Austin,TX,78703,,888-758-4389,E,,Public,24 hours daily,,,,,,2.0,,,ChargePoint Network,http://www.chargepoint.com/,GPS,30.273037,-97.759986,2023-10-30,162566,2023-10-30 00:20:04 UTC,,,,2020-06-12,,,,,J1772,US,,,,Public,,Public,,,,,,,,,,,,,,,,,,,,,,,,,,,,,False
28075,ELEC,HYATT PLACE HP STATION 3,9532 Spirit of Austin Ln,,Austin,TX,78719,,888-758-4389,E,,Public,24 hours daily,,,,,,2.0,,,ChargePoint Network,http://www.chargepoint.com/,GPS,30.210387,-97.664586,2023-10-30,162570,2023-10-30 00:19:38 UTC,,,,2020-06-12,,,,,J1772,US,,,,Public,,Public,,,,,,,,,,,,,,,,,,,,,,,,,,,,,False
28079,ELEC,COA LOT J NW,10200 Hotel Drive,,Austin,TX,78719,,888-758-4389,E,,Public,24 hours daily,,,,,,2.0,,,ChargePoint Network,http://www.chargepoint.com/,GPS,30.20963,-97.660839,2023-10-30,162575,2023-10-30 00:18:58 UTC,,,,2020-06-12,,,,,J1772,US,,,,Public,,Public,,,,,,,,,,,,,,,,,,,,,,,,,,,,,False
28082,ELEC,BURNET FLATS BURNET FLATS G1,5453 Burnet Rd,,Austin,TX,78756,,888-758-4389,E,,Public,24 hours daily,,,,,,2.0,,,ChargePoint Network,http://www.chargepoint.com/,GPS,30.330046,-97.739251,2023-10-30,162580,2023-10-30 00:18:41 UTC,,,,2020-06-12,,,,,J1772,US,,,,Public,,Public,,,,,,,,,,,,,,,,,,,,,,,,,,,,,False
28084,ELEC,THE PARK-GARAGE GARAGE P2 L2,3711 S MoPac Expy,,Austin,TX,78746,,888-758-4389,E,,Public,24 hours daily,,,,,,2.0,,,ChargePoint Network,http://www.chargepoint.com/,GPS,30.246007,-97.804622,2023-10-30,162582,2023-10-30 00:18:38 UTC,,,,2020-06-12,,,,,J1772,US,,,,Public,,Public,,,,,,,,,,,,,,,,,,,,,,,,,,,,,False
28090,ELEC,LADERA BEND GATED GARAGE 2,7300 Ranch Rd 2222,,Austin,TX,78730,,888-758-4389,E,,Public,24 hours daily,,,,,,2.0,,,ChargePoint Network,http://www.chargepoint.com/,GPS,30.372159,-97.80166,2023-10-30,162601,2023-10-30 00:17:34 UTC,,,,2020-06-12,,,,,J1772,US,,,,Public,,Public,,,,,,,,,,,,,,,,,,,,,,,,,,,,,False
28094,ELEC,LADERA BEND BUILDING 3,7300 Ranch Rd 2222,,Austin,TX,78730,,888-758-4389,E,,Public,24 hours daily,,,,,,2.0,,,ChargePoint Network,http://www.chargepoint.com/,GPS,30.374104,-97.802892,2023-10-30,162616,2023-10-30 00:17:07 UTC,,,,2020-06-12,,,,,J1772,US,,,,Public,,Public,,,,,,,,,,,,,,,,,,,,,,,,,,,,,False
28096,ELEC,MIRA VISTA STATION 1,2705 Bee Cave Rd,,Austin,TX,78746,,888-758-4389,E,,Public,24 hours daily,,,,,,2.0,,,ChargePoint Network,http://www.chargepoint.com/,GPS,30.269525,-97.786972,2023-10-30,162619,2023-10-30 00:16:58 UTC,,,,2020-06-12,,,,,J1772,US,,,,Public,,Public,,,,,,,,,,,,,,,,,,,,,,,,,,,,,False
28099,ELEC,PIE AE PUBHARCON L2,6601 Vaught Ranch Rd,,Austin,TX,78730,,888-758-4389,E,,Public,24 hours daily,,,,,,2.0,,,ChargePoint Network,http://www.chargepoint.com/,GPS,30.373046,-97.806478,2023-10-30,162623,2023-10-30 00:16:55 UTC,,,,2020-06-12,,,,,J1772,US,,,,Public,,Public,,,,,,,,,,,,,,,,,,,,,,,,,,,,,False
28100,ELEC,PARK&ZOOM VALET #2,2601 Cardinal Loop,,Austin,TX,78617,,888-758-4389,E,,Public,24 hours daily,,,,,,2.0,,,ChargePoint Network,http://www.chargepoint.com/,GPS,30.213452,-97.657691,2023-10-30,162624,2023-10-30 00:16:48 UTC,,,,2020-06-12,,,,,J1772,US,,,,Public,,Public,,,,,,,,,,,,,,,,,,,,,,,,,,,,,False
28101,ELEC,PARK&ZOOM VALET #5,9518 Hotel Dr,,Austin,TX,78719,,888-758-4389,E,,Public,24 hours daily,,,,,,2.0,,,ChargePoint Network,http://www.chargepoint.com/,GPS,30.211668,-97.661771,2023-10-30,162626,2023-10-30 00:16:43 UTC,,,,2020-06-12,,,,,J1772,US,,,,Public,,Public,,,,,,,,,,,,,,,,,,,,,,,,,,,,,False
28102,ELEC,INT-BIO EV CHGR INTBIO EV CHGR1,8206 Cross Park Dr,,Austin,TX,78754,,888-758-4389,E,,Public,24 hours daily,,,,,,2.0,,,ChargePoint Network,http://www.chargepoint.com/,GPS,30.33089,-97.668908,2023-10-30,162628,2023-10-30 00:16:24 UTC,,,,2020-06-12,,,,,J1772,US,,,,Public,,Public,,,,,,,,,,,,,,,,,,,,,,,,,,,,,False
28105,ELEC,THE GROVE MAIN STATION 1,3707 Manchaca Rd,,Austin,TX,78704,,888-758-4389,E,,Public,24 hours daily,,,,,,2.0,,,ChargePoint Network,http://www.chargepoint.com/,GPS,30.236473,-97.782607,2023-10-30,162631,2023-10-30 00:15:55 UTC,,,,2020-06-12,,,,,J1772,US,,,,Public,,Public,,,,,,,,,,,,,,,,,,,,,,,,,,,,,False
28106,ELEC,RPP GARAGE GARAGE GW,12455 Research Park Loop,,Austin,TX,78727,,888-758-4389,E,,Public,24 hours daily,,,,,,2.0,,,ChargePoint Network,http://www.chargepoint.com/,GPS,30.429363,-97.755248,2023-10-30,162632,2023-10-30 00:15:53 UTC,,,,2020-06-12,,,,,J1772,US,,,,Public,,Public,,,,,,,,,,,,,,,,,,,,,,,,,,,,,False
28111,ELEC,120 ENTRANCE ACH MAIN,2200 S. Interstate 35,,Austin,TX,78704,,888-758-4389,E,,Public,24 hours daily,,,,,,2.0,,,ChargePoint Network,http://www.chargepoint.com/,GPS,30.235856,-97.741577,2023-10-30,162642,2023-10-30 00:15:16 UTC,,,,2020-06-12,,,,,J1772,US,,,,Public,,Public,,,,,,,,,,,,,,,,,,,,,,,,,,,,,False
28113,ELEC,NATIONAL INSTRU 19&20;,11500 N Mopac Expy,,Austin,TX,78759,,888-758-4389,E,,Public,24 hours daily,,,,,,2.0,,,ChargePoint Network,http://www.chargepoint.com/,GPS,30.40854,-97.72767,2023-10-30,162645,2023-10-30 00:14:53 UTC,,,,2020-06-12,,,,,J1772,US,,,,Public,,Public,,,,,,,,,,,,,,,,,,,,,,,,,,,,,False
28119,ELEC,GAINESRANCH GAINES 1,4424 Gaines Ranch Loop,,Austin,TX,78735,,888-758-4389,E,,Public,24 hours daily,,,,,,2.0,,,ChargePoint Network,http://www.chargepoint.com/,GPS,30.244044,-97.818364,2023-10-30,162652,2023-10-30 00:14:05 UTC,,,,2020-06-12,,,,,J1772,US,,,,Public,,Public,,,,,,,,,,,,,,,,,,,,,,,,,,,,,False
28120,ELEC,AMBEROAKS-AE AMBER 1,9001 Amberglen Blvd,,Austin,TX,78729,,888-758-4389,E,,Public,24 hours daily,,,,,,2.0,,,ChargePoint Network,http://www.chargepoint.com/,GPS,30.470002,-97.766435,2023-10-30,162653,2023-10-30 00:14:05 UTC,,,,2020-06-12,,,,,J1772,US,,,,Public,,Public,,,,,,,,,,,,,,,,,,,,,,,,,,,,,False
28123,ELEC,ROSCOE PROPERTI THE CONNECTION,4404 E Oltorf St,,Austin,TX,78741,,888-758-4389,T,2023-07-21,TEMPORARILY UNAVAILABLE (Public),24 hours daily,,,,,,2.0,,,ChargePoint Network,http://www.chargepoint.com/,GPS,30.227456,-97.726096,2023-10-30,162664,2023-10-30 00:13:44 UTC,,,,2020-06-12,,,,,J1772,US,,,,TEMPORAIREMENT SUSPENDU (Public),,Public,,,,,,,,,,,,,,,,,,,,,,,,,,,,,False
28126,ELEC,HABITAT SUITES DUAL PORT,500 E Highland Mall Blvd,,Austin,TX,78752,,888-758-4389,T,2022-09-09,TEMPORARILY UNAVAILABLE (Public),24 hours daily,,,,,,2.0,,,ChargePoint Network,http://www.chargepoint.com/,GPS,30.329139,-97.709555,2023-10-30,162672,2023-10-30 00:13:33 UTC,,,,2020-06-12,,,,,J1772,US,,,,TEMPORAIREMENT SUSPENDU (Public),,Public,,,,,,,,,,,,,,,,,,,,,,,,,,,,,False
28127,ELEC,ROSCOE PROPERTI CURRENT MAIN,2057 Willow Creek Dr,,Austin,TX,78741,,888-758-4389,E,,Public,24 hours daily,,,,,,2.0,,,ChargePoint Network,http://www.chargepoint.com/,GPS,30.231758,-97.729473,2023-10-30,162673,2023-10-30 00:13:31 UTC,,,,2020-06-12,,,,,J1772,US,,,,Public,,Public,,,,,,,,,,,,,,,,,,,,,,,,,,,,,False
28128,ELEC,ROSCOE PROPERTI VOLUME MAIN,1715 E 32nd St,,Austin,TX,78722,,888-758-4389,T,2022-09-09,TEMPORARILY UNAVAILABLE (Public),24 hours daily,,,,,,2.0,,,ChargePoint Network,http://www.chargepoint.com/,GPS,30.28544,-97.715107,2023-10-30,162674,2023-10-30 00:13:31 UTC,,,,2020-06-12,,,,,J1772,US,,,,TEMPORAIREMENT SUSPENDU (Public),,Public,,,,,,,,,,,,,,,,,,,,,,,,,,,,,False
28131,ELEC,PIE PRESERVE MAIN GATEWAY 1,5604 Southwest Pkwy,,Austin,TX,78735,,888-758-4389,E,,Public,24 hours daily,,,,,,2.0,,,ChargePoint Network,http://www.chargepoint.com/,GPS,30.246834,-97.846018,2023-10-30,162678,2023-10-30 00:13:20 UTC,,,,2020-06-12,,,,,J1772,US,,,,Public,,Public,,,,,,,,,,,,,,,,,,,,,,,,,,,,,False
28134,ELEC,PARKING LEVEL 1 GATEWAY 1 MAIN,11301 Domain Dr,,Austin,TX,78758,,888-758-4389,E,,Public,24 hours daily,,,,,,2.0,,,ChargePoint Network,http://www.chargepoint.com/,GPS,30.3987,-97.724056,2023-10-30,162682,2023-10-30 00:13:18 UTC,,,,2020-06-12,,,,,J1772,US,,,,Public,,Public,,,,,,,,,,,,,,,,,,,,,,,,,,,,,False
28146,ELEC,COA DOA - CONRAC1,3819 Presidential Blvd,,Austin,TX,78719,,888-758-4389,E,,Public,24 hours daily,,,,,,2.0,,,ChargePoint Network,http://www.chargepoint.com/,GPS,30.204711,-97.666322,2023-10-30,162699,2023-10-30 00:12:54 UTC,,,,2020-06-12,,,,,J1772,US,,,,Public,,Public,,,,,,,,,,,,,,,,,,,,,,,,,,,,,False
28149,ELEC,WEINSTEIN BEXLEY LAKELINE,2801 S Lakeline Blvd,,Cedar Park,TX,78613,,888-758-4389,E,,Public,24 hours daily,,,,,,2.0,,,ChargePoint Network,http://www.chargepoint.com/,GPS,30.473632,-97.809632,2023-10-30,162702,2023-10-30 00:12:51 UTC,,,,2020-06-12,,,,,J1772,US,,,,Public,,Public,,,,,,,,,,,,,,,,,,,,,,,,,,,,,False
28152,ELEC,HPI 3700 EV 3,3700 N Capital of Texas Hwy,,Austin,TX,78746,,888-758-4389,E,,Public,24 hours daily,,,,,,1.0,,,ChargePoint Network,http://www.chargepoint.com/,GPS,30.336765,-97.806189,2023-10-30,162705,2023-10-30 00:12:35 UTC,,,,2020-06-12,,,,,J1772,US,,,,Public,,Public,,,,,,,,,,,,,,,,,,,,,,,,,,,,,False
28155,ELEC,GALLERY DOMAIN GALLERY DOMAIN,3000 Kramer Ln,,Austin,TX,78758,,888-758-4389,T,2022-10-23,TEMPORARILY UNAVAILABLE (Public),24 hours daily,,,,,,2.0,,,ChargePoint Network,http://www.chargepoint.com/,GPS,30.395762,-97.722896,2023-10-30,162708,2023-10-30 00:12:20 UTC,,,,2020-06-12,,,,,J1772,US,,,,TEMPORAIREMENT SUSPENDU (Public),,Public,,,,,,,,,,,,,,,,,,,,,,,,,,,,,False
28157,ELEC,PIE AE PUB UTPICKLE2,10100 Burnet Rd J. J. Pickle Research Campus,,Austin,TX,78758,,888-758-4389,E,,Public,24 hours daily,,,,,,2.0,,,ChargePoint Network,http://www.chargepoint.com/,GPS,30.389602,-97.725084,2023-10-30,162715,2023-10-30 00:11:56 UTC,,,,2020-06-12,,,,,J1772,US,,,,Public,,Public,,,,,,,,,,,,,,,,,,,,,,,,,,,,,False
28158,ELEC,WHITLEY MAIN PIE-M WHITLEY,301 Brazos St,,Austin,TX,78701,,888-758-4389,T,2022-09-09,TEMPORARILY UNAVAILABLE (Public),24 hours daily,,,,,,2.0,,,ChargePoint Network,http://www.chargepoint.com/,GPS,30.265101,-97.742204,2023-10-30,162716,2023-10-30 00:11:48 UTC,,,,2020-06-12,,,,,J1772,US,,,,TEMPORAIREMENT SUSPENDU (Public),,Public,,,,,,,,,,,,,,,,,,,,,,,,,,,,,False
28159,ELEC,PIE-CAPRIDGE #1,115 Wild Basin Rd,,Austin,TX,78746,,888-758-4389,E,,Public,24 hours daily,,,,,,2.0,,,ChargePoint Network,http://www.chargepoint.com/,GPS,30.304182,-97.828161,2023-10-30,162717,2023-10-30 00:11:47 UTC,,,,2020-06-12,,,,,J1772,US,,,,Public,,Public,,,,,,,,,,,,,,,,,,,,,,,,,,,,,False
28160,ELEC,MUELLER MARKET MUELLER ST1,"1801 E 51st St Austin, TX 78723",,Austin,TX,78723,,888-758-4389,T,2023-03-28,TEMPORARILY UNAVAILABLE (Public),24 hours daily,,,,,,1.0,,,ChargePoint Network,http://www.chargepoint.com/,GPS,30.300963,-97.699557,2023-10-30,162718,2023-10-30 00:11:19 UTC,,,,2020-06-12,,,,,J1772,US,,,,TEMPORAIREMENT SUSPENDU (Public),,Public,,,,,,,,,,,,,,,,,,,,,,,,,,,,,False
28161,ELEC,P1 EV STATION,110 East 2nd Street,,Austin,TX,78701,,888-758-4389,E,,Public,24 hours daily,,,,,,2.0,,,ChargePoint Network,http://www.chargepoint.com/,GPS,30.264572,-97.743405,2023-10-30,162719,2023-10-30 00:11:17 UTC,,,,2020-06-12,,,,,J1772,US,,,,Public,,Public,,,,,,,,,,,,,,,,,,,,,,,,,,,,,False
28165,ELEC,CHEVY MAIN AUTONATION MAIN,11400 Research Blvd,,Austin,TX,78759,,888-758-4389,T,2022-09-09,TEMPORARILY UNAVAILABLE (Public),24 hours daily,,,,,,2.0,,,ChargePoint Network,http://www.chargepoint.com/,GPS,30.409556,-97.745947,2023-10-30,162733,2023-10-30 00:10:18 UTC,,,,2020-06-12,,,,,J1772,US,,,,TEMPORAIREMENT SUSPENDU (Public),,Public,,,,,,,,,,,,,,,,,,,,,,,,,,,,,False
28167,ELEC,1500 ROYAL ELEMENT AUSTIN,1500 Royal Crest Dr,,Austin,TX,78741,,888-758-4389,E,,Public,24 hours daily,,,,,,2.0,,,ChargePoint Network,http://www.chargepoint.com/,GPS,30.240527,-97.730373,2023-10-30,162737,2023-10-30 00:10:03 UTC,,,,2020-06-12,,,,,J1772,US,,,,Public,,Public,,,,,,,,,,,,,,,,,,,,,,,,,,,,,False
28173,ELEC,SLEEP INN SLEEP INN 1,8410 E Hwy 290,,Austin,TX,78754,,888-758-4389,T,2022-09-09,TEMPORARILY UNAVAILABLE (Public),24 hours daily,,,,,,2.0,,,ChargePoint Network,http://www.chargepoint.com/,GPS,30.329889,-97.661712,2023-10-30,162746,2023-10-30 00:09:45 UTC,,,,2020-06-12,,,,,J1772,US,,,,TEMPORAIREMENT SUSPENDU (Public),,Public,,,,,,,,,,,,,,,,,,,,,,,,,,,,,False
28175,ELEC,WALLERCREEKSIDE CREEKSIDE1,102 E 50th St,,Austin,TX,78751,,888-758-4389,E,,Public,24 hours daily,,,,,,1.0,,,ChargePoint Network,http://www.chargepoint.com/,GPS,30.315229,-97.724395,2023-10-30,162749,2023-10-30 00:09:38 UTC,,,,2020-06-12,,,,,J1772,US,,,,Public,,Public,,,,,,,,,,,,,,,,,,,,,,,,,,,,,False
28187,ELEC,WHOLE FOODS MKT DOMAIN STAT 1,11920 Domain Dr,,Austin,TX,78758,,888-758-4389,T,2022-09-09,TEMPORARILY UNAVAILABLE (Public),24 hours daily,,,,,,2.0,,,ChargePoint Network,http://www.chargepoint.com/,GPS,30.405997,-97.720733,2023-10-30,162774,2023-10-30 00:08:56 UTC,,,,2020-06-12,,,,,J1772,US,,,,TEMPORAIREMENT SUSPENDU (Public),,Public,,,,,,,,,,,,,,,,,,,,,,,,,,,,,False
28188,ELEC,WHOLE FOODS MKT DOMAIN STAT 2,Domain Dr,,Austin,TX,78758,,888-758-4389,T,2022-09-09,TEMPORARILY UNAVAILABLE (Public),24 hours daily,,,,,,2.0,,,ChargePoint Network,http://www.chargepoint.com/,GPS,30.406015,-97.720683,2023-10-30,162775,2023-10-30 00:08:52 UTC,,,,2020-06-12,,,,,J1772,US,,,,TEMPORAIREMENT SUSPENDU (Public),,Public,,,,,,,,,,,,,,,,,,,,,,,,,,,,,False
28192,ELEC,PIE AE PUBCHASEESCAL1,4301 Westbank Dr,,Austin,TX,78746,,888-758-4389,E,,Public,24 hours daily,,,,,,2.0,,,ChargePoint Network,http://www.chargepoint.com/,GPS,30.27632,-97.817073,2023-10-30,162790,2023-10-30 00:43:09 UTC,,,,2020-06-12,,,,,J1772,US,,,,Public,,Public,,,,,,,,,,,,,,,,,,,,,,,,,,,,,False
28193,ELEC,PIE AE PUB CAMP MABRY2,2200 W 35th St. Camp Mabry 1 mile track near,,Austin,TX,78703,,888-758-4389,E,,Public,24 hours daily,,,,,,2.0,,,ChargePoint Network,http://www.chargepoint.com/,GPS,30.3166,-97.75766,2023-10-30,162793,2023-10-30 00:44:27 UTC,,,,2020-06-12,,,,,J1772,US,,,,Public,,Public,,,,,,,,,,,,,,,,,,,,,,,,,,,,,False
28781,ELEC,PIE AE HEB E51ST DCFC4,1800 E 51st St,,Austin,TX,78723,,888-758-4389,E,,Public,24 hours daily,,,,,,,1.0,,ChargePoint Network,http://www.chargepoint.com/,GPS,30.302216,-97.697827,2023-10-30,164535,2023-10-30 00:40:32 UTC,,,,2020-07-25,,,,,CHADEMO J1772COMBO,US,,,,Public,,Public,,,,,,,,,,,,,,,,,,,,,,,,,,,,,False
29326,ELEC,PIE AE AFS DC2,2005 ½ East 51st street,,Austin,TX,78723,,888-758-4389,E,,Public,24 hours daily,,,,,,,1.0,,ChargePoint Network,http://www.chargepoint.com/,GPS,30.300871,-97.692889,2023-10-30,165788,2023-10-30 00:43:00 UTC,,,,2020-08-29,,,,,CHADEMO J1772COMBO,US,,,,Public,,Public,,,,,,,,,,,,,,,,,,,,,,,,,,,,,False
29840,ELEC,PIE AE ERCOT 1,7620 Metro Center Dr,,Austin,TX,78744,,888-758-4389,E,,Public,24 hours daily,,,,,,2.0,,,ChargePoint Network,http://www.chargepoint.com/,GPS,30.216664,-97.692299,2023-10-30,167232,2023-10-30 00:43:49 UTC,,,,2020-10-02,,,,,J1772,US,,,,Public,,Public,,,,,,,,,,,,,,,,,,,,,,,,,,,,,False
30281,ELEC,PIE AE PUBAISDBURGERC,3200 Jones Rd,,Sunset Valley,TX,78745,,888-758-4389,E,,Public,24 hours daily,,,,,,2.0,,,ChargePoint Network,http://www.chargepoint.com/,GPS,30.228409,-97.809342,2023-10-30,168149,2023-10-30 00:44:15 UTC,,,,2020-11-05,,,,,J1772,US,,,,Public,,Public,,,,,,,,,,,,,,,,,,,,,,,,,,,,,False
30620,ELEC,Hotel Saint Cecilia - Tesla Destination,112 Academy Dr,,Austin,TX,78704,,512-852-2400  877-798-3752,E,,Public,,,,,,,1.0,,,Tesla Destination,https://www.tesla.com/destination-charging,200-9,30.25196,-97.746725,2022-10-06,168860,2023-01-18 15:15:20 UTC,P,,,2017-03-14,,,,,TESLA,US,,,,Public,,Public,,,,,,,,,,Free,,,,,,,,,,,,,,,,,,,False
30712,ELEC,Staybridge Suites Austin North - Tesla Destination,2207 W Parmer Ln,,Austin,TX,78727,,  877-798-3752,E,,Public,,,,,,,2.0,,,Tesla Destination,https://www.tesla.com/destination-charging,200-9,30.378657,-97.675981,2022-10-06,169132,2023-01-18 15:15:20 UTC,P,,,2016-08-02,,,,,J1772 TESLA,US,,,,Public,,Public,,,,,,,,,,Free,,,,,,,,,,,,,,,,,,,False
30919,ELEC,The Domain - Tesla Supercharger,11410 Century Oaks Terrace,,Austin,TX,78758,,877-798-3752,E,,Public,24 hours daily,,,,,,,16.0,,Tesla,https://www.tesla.com/supercharger,GPS,30.402497,-97.724726,2023-07-01,169535,2023-07-14 19:41:28 UTC,P,,,2020-11-23,,,,,TESLA,US,,,,Public,,Public,,,SHOPPING_MALL,,,,,,,,,,,,,,,,,,,,,,,,,,False
31090,ELEC,AUSTIN DOT PDC EV #3,6310 Wilhelmina Delco Drive,,Austin,TX,78752,,888-758-4389,E,,Public,24 hours daily,,,,,,2.0,,,ChargePoint Network,http://www.chargepoint.com/,GPS,30.32592,-97.708895,2023-10-30,169915,2023-10-30 00:40:51 UTC,,,,2020-12-04,,,,,J1772,US,,,,Public,,Public,,,,,,,,,,,,,,,,,,,,,,,,,,,,,False
31295,ELEC,SHADOWGLEN STATION1,12500 Shadowglen Trace,,Manor,TX,78653,,888-758-4389,E,,Public,24 hours daily,,,,,,2.0,,,ChargePoint Network,http://www.chargepoint.com/,GPS,30.360424,-97.534691,2023-10-30,170295,2023-10-30 00:35:00 UTC,,,,2020-12-18,,,,,J1772,US,,,,Public,,Public,,,,,,,,,,,,,,,,,,,,,,,,,,,,,False
31502,ELEC,PIE AE WALNUTCREEKPRK2,Walnut Creek Park Rd,,Austin,TX,78758,,888-758-4389,E,,Public,24 hours daily,,,,,,2.0,,,ChargePoint Network,http://www.chargepoint.com/,GPS,30.401812,-97.684096,2023-10-30,170685,2023-10-30 00:40:18 UTC,,,,2020-12-31,,,,,J1772,US,,,,Public,,Public,,,,,,,,,,,,,,,,,,,,,,,,,,,,,False
31993,ELEC,PIE AE MILWOOD LIB 1,12500 Amherst Dr,,Austin,TX,78727,,888-758-4389,E,,Public,24 hours daily,,,,,,2.0,,,ChargePoint Network,http://www.chargepoint.com/,GPS,30.422307,-97.716492,2023-10-30,171504,2023-10-30 00:26:07 UTC,,,,2021-01-27,,,,,J1772,US,,,,Public,,Public,,,,,,,,,,,,,,,,,,,,,,,,,,,,,False
32020,ELEC,PIE AE PUB-STDAVIDSST2,710 Trinity St,,Austin,TX,78701,,888-758-4389,E,,Public,24 hours daily,,,,,,2.0,,,ChargePoint Network,http://www.chargepoint.com/,GPS,30.268895,-97.739056,2023-10-30,171545,2023-10-30 00:36:41 UTC,,,,2021-01-27,,,,,J1772,US,,,,Public,,Public,,,,,,,,,,,,,,,,,,,,,,,,,,,,,False
32088,ELEC,PIE AE OTC 3FL PKGSTA1,505 BARTON springs rd.,,Austin,TX,78704,,888-758-4389,E,,Public,24 hours daily,,,,,,2.0,,,ChargePoint Network,http://www.chargepoint.com/,GPS,30.256815,-97.748988,2023-10-30,171667,2023-10-30 00:26:11 UTC,,,,2021-01-27,,,,,J1772,US,,,,Public,,Public,,,,,,,,,,,,,,,,,,,,,,,,,,,,,False
32089,ELEC,PIE AE OTC 3FL PKGSTA2,505 BARTON springs rd.,,Austin,TX,78704,,888-758-4389,E,,Public,24 hours daily,,,,,,2.0,,,ChargePoint Network,http://www.chargepoint.com/,GPS,30.256863,-97.748959,2023-10-30,171668,2023-10-30 00:26:11 UTC,,,,2021-01-27,,,,,J1772,US,,,,Public,,Public,,,,,,,,,,,,,,,,,,,,,,,,,,,,,False
32090,ELEC,PIE AE ANIMAL SERVICE1,7201 Levander Loop,,Austin,TX,78702,,888-758-4389,E,,Public,24 hours daily,,,,,,2.0,,,ChargePoint Network,http://www.chargepoint.com/,GPS,30.251369,-97.689082,2023-10-30,171669,2023-10-30 00:26:01 UTC,,,,2021-01-27,,,,,J1772,US,,,,Public,,Public,,,,,,,,,,,,,,,,,,,,,,,,,,,,,False
32375,ELEC,STEINER RANCH 1 STEINER1,4800 Steiner Ranch Blvd,,Austin,TX,78732,,888-758-4389,E,,Public,24 hours daily,,,,,,2.0,,,ChargePoint Network,http://www.chargepoint.com/,GPS,30.383012,-97.874328,2023-10-30,172046,2023-10-30 00:15:14 UTC,,,,2021-01-27,,,,,J1772,US,,,,Public,,Public,,,,,,,,,,,,,,,,,,,,,,,,,,,,,False
32435,ELEC,HPI 3700 3900 SC 4,3900 N Capital of Texas Hwy,,Austin,TX,78746,,888-758-4389,E,,Public,24 hours daily,,,,,,2.0,,,ChargePoint Network,http://www.chargepoint.com/,GPS,30.337935,-97.808041,2023-10-30,172124,2023-10-30 00:28:12 UTC,,,,2021-01-27,,,,,J1772,US,,,,Public,,Public,,,,,,,,,,,,,,,,,,,,,,,,,,,,,False
32436,ELEC,HPI 3700 3900 SC #1,3900 N Capital of Texas Hwy,,Austin,TX,78746,,888-758-4389,E,,Public,24 hours daily,,,,,,2.0,,,ChargePoint Network,http://www.chargepoint.com/,GPS,30.337898,-97.807867,2023-10-30,172125,2023-10-30 00:13:45 UTC,,,,2021-01-27,,,,,J1772,US,,,,Public,,Public,,,,,,,,,,,,,,,,,,,,,,,,,,,,,False
32437,ELEC,HPI 3700 3900 SC #2,3900 N Capital of Texas Hwy,,Austin,TX,78746,,888-758-4389,E,,Public,24 hours daily,,,,,,2.0,,,ChargePoint Network,http://www.chargepoint.com/,GPS,30.337882,-97.807765,2023-10-30,172126,2023-10-30 00:13:43 UTC,,,,2021-01-27,,,,,J1772,US,,,,Public,,Public,,,,,,,,,,,,,,,,,,,,,,,,,,,,,False
32485,ELEC,PIE AE PALMER STATION7,846888 Barton Springs Rd,,Austin,TX,78704,,888-758-4389,E,,Public,24 hours daily,,,,,,2.0,,,ChargePoint Network,http://www.chargepoint.com/,GPS,30.259966,-97.752658,2023-10-30,172182,2023-10-30 00:27:51 UTC,,,,2021-01-27,,,,,J1772,US,,,,Public,,Public,,,,,,,,,,,,,,,,,,,,,,,,,,,,,False
32486,ELEC,PIE AE PALMER STATION8,846888 Barton Springs Rd,,Austin,TX,78704,,888-758-4389,E,,Public,24 hours daily,,,,,,2.0,,,ChargePoint Network,http://www.chargepoint.com/,GPS,30.259864,-97.752661,2023-10-30,172183,2023-10-30 00:24:36 UTC,,,,2021-01-27,,,,,J1772,US,,,,Public,,Public,,,,,,,,,,,,,,,,,,,,,,,,,,,,,False
32579,ELEC,PIE AE PALMER STATION3,800 Barton Springs Rd,,Austin,TX,78704,,888-758-4389,E,,Public,24 hours daily,,,,,,2.0,,,ChargePoint Network,http://www.chargepoint.com/,GPS,30.259236,-97.751809,2023-10-30,172310,2023-10-30 00:20:03 UTC,,,,2021-01-27,,,,,J1772,US,,,,Public,,Public,,,,,,,,,,,,,,,,,,,,,,,,,,,,,False
32580,ELEC,PIE AE PALMER STATION1,800 Barton Springs Rd,,Austin,TX,78704,,888-758-4389,T,2022-09-09,TEMPORARILY UNAVAILABLE (Public),24 hours daily; Drivers must bring their own J1772 cordset for Level 1 charging,,,,,1.0,1.0,,,ChargePoint Network,http://www.chargepoint.com/,GPS,30.259287,-97.751956,2023-10-30,172311,2023-10-30 00:08:29 UTC,,,,2021-01-27,,,,,J1772 NEMA515,US,,,,TEMPORAIREMENT SUSPENDU (Public),,Public,,,,,,,,,,,,,,,,,,,,,,,,,,,,,False
32964,ELEC,MUELLER MARKET MUELLER ST7,1801 E 51st St,,Austin,TX,78723,,888-758-4389,E,,Public,24 hours daily,,,,,,1.0,,,ChargePoint Network,http://www.chargepoint.com/,GPS,30.300934,-97.699428,2023-10-30,172807,2023-10-30 00:13:56 UTC,,,,2021-01-27,,,,,J1772,US,,,,Public,,Public,,,,,,,,,,,,,,,,,,,,,,,,,,,,,False
32965,ELEC,PIE AE HEB E51ST DCFC2,1801 E 51st St,,Austin,TX,78723,,888-758-4389,E,,Public,24 hours daily,,,,,,,1.0,,ChargePoint Network,http://www.chargepoint.com/,GPS,30.302259,-97.697916,2023-10-30,172808,2023-10-30 00:40:32 UTC,,,,2021-01-27,,,,,CHADEMO J1772COMBO,US,,,,Public,,Public,,,,,,,,,,,,,,,,,,,,,,,,,,,,,False
33203,ELEC,BEXLEYTECHRIDGE CLUBHOUSE,1200 East Parmer Lane,,Austin,TX,78753,,888-758-4389,T,2022-09-09,TEMPORARILY UNAVAILABLE (Public),24 hours daily,,,,,,1.0,,,ChargePoint Network,http://www.chargepoint.com/,GPS,30.394787,-97.653242,2023-10-30,173123,2023-10-30 00:08:30 UTC,,,,2021-01-27,,,,,J1772,US,,,,TEMPORAIREMENT SUSPENDU (Public),,Public,,,,,,,,,,,,,,,,,,,,,,,,,,,,,False
33204,ELEC,COA NEWCENTRALLIB3,710 W Cesar Chavez St,,Austin,TX,78701,,888-758-4389,E,,Public,24 hours daily,,,,,,2.0,,,ChargePoint Network,http://www.chargepoint.com/,GPS,30.266102,-97.751688,2023-10-30,173124,2023-10-30 00:15:34 UTC,,,,2021-01-27,,,,,J1772,US,,,,Public,,Public,,,,,,,,,,,,,,,,,,,,,,,,,,,,,False
33205,ELEC,COA NEWCENTRALLIB2,710 W Cesar Chavez St,,Austin,TX,78701,,888-758-4389,E,,Public,24 hours daily,,,,,,2.0,,,ChargePoint Network,http://www.chargepoint.com/,GPS,30.266118,-97.751731,2023-10-30,173125,2023-10-30 00:15:31 UTC,,,,2021-01-27,,,,,J1772,US,,,,Public,,Public,,,,,,,,,,,,,,,,,,,,,,,,,,,,,False
33206,ELEC,COA NEWCENTRALLIB1,710 W Cesar Chavez St,,Austin,TX,78701,,888-758-4389,E,,Public,24 hours daily,,,,,,2.0,,,ChargePoint Network,http://www.chargepoint.com/,GPS,30.266102,-97.751667,2023-10-30,173126,2023-10-30 00:15:17 UTC,,,,2021-01-27,,,,,J1772,US,,,,Public,,Public,,,,,,,,,,,,,,,,,,,,,,,,,,,,,False
33229,ELEC,ORACLE ATX23 EXEC GARAGE E2,2300 CloudWay,,Austin,TX,78741,,888-758-4389,E,,Public,24 hours daily,,,,,,2.0,,,ChargePoint Network,http://www.chargepoint.com/,GPS,30.243203,-97.721277,2023-10-30,173163,2023-10-30 00:21:24 UTC,,,,2021-01-27,,,,,J1772,US,,,,Public,,Public,,,,,,,,,,,,,,,,,,,,,,,,,,,,,False
33230,ELEC,ORACLE ATX23 G1 6,2300 cloudway,,Austin,TX,78741,,888-758-4389,E,,Public,24 hours daily,,,,,,2.0,,,ChargePoint Network,http://www.chargepoint.com/,GPS,30.241897,-97.720511,2023-10-30,173164,2023-10-30 00:21:24 UTC,,,,2021-01-27,,,,,J1772,US,,,,Public,,Public,,,,,,,,,,,,,,,,,,,,,,,,,,,,,False
33231,ELEC,ORACLE ATX23 G2 6,2300 cloudway,,Austin,TX,78741,,888-758-4389,E,,Public,24 hours daily,,,,,,2.0,,,ChargePoint Network,http://www.chargepoint.com/,GPS,30.241941,-97.720263,2023-10-30,173165,2023-10-30 00:21:24 UTC,,,,2021-01-27,,,,,J1772,US,,,,Public,,Public,,,,,,,,,,,,,,,,,,,,,,,,,,,,,False
33232,ELEC,ORACLE ATX23 G1 2,2300 cloudway,,Austin,TX,78741,,888-758-4389,E,,Public,24 hours daily,,,,,,2.0,,,ChargePoint Network,http://www.chargepoint.com/,GPS,30.241993,-97.720295,2023-10-30,173166,2023-10-30 00:21:10 UTC,,,,2021-01-27,,,,,J1772,US,,,,Public,,Public,,,,,,,,,,,,,,,,,,,,,,,,,,,,,False
33233,ELEC,ORACLE ATX23 G1 3,2300 cloudway,,Austin,TX,78741,,888-758-4389,E,,Public,24 hours daily,,,,,,2.0,,,ChargePoint Network,http://www.chargepoint.com/,GPS,30.241932,-97.720201,2023-10-30,173167,2023-10-30 00:21:10 UTC,,,,2021-01-27,,,,,J1772,US,,,,Public,,Public,,,,,,,,,,,,,,,,,,,,,,,,,,,,,False
33234,ELEC,ORACLE ATX23 G2 5,2300 cloudway,,Austin,TX,78741,,888-758-4389,T,2022-09-09,TEMPORARILY UNAVAILABLE (Public),24 hours daily,,,,,,2.0,,,ChargePoint Network,http://www.chargepoint.com/,GPS,30.241887,-97.720486,2023-10-30,173168,2023-10-30 00:21:09 UTC,,,,2021-01-27,,,,,J1772,US,,,,TEMPORAIREMENT SUSPENDU (Public),,Public,,,,,,,,,,,,,,,,,,,,,,,,,,,,,False
33235,ELEC,ORACLE ATX23 G2 3,2300 cloudway,,Austin,TX,78741,,888-758-4389,E,,Public,24 hours daily,,,,,,2.0,,,ChargePoint Network,http://www.chargepoint.com/,GPS,30.241913,-97.720142,2023-10-30,173169,2023-10-30 00:21:09 UTC,,,,2021-01-27,,,,,J1772,US,,,,Public,,Public,,,,,,,,,,,,,,,,,,,,,,,,,,,,,False
33236,ELEC,ORACLE ATX23 G1 4,2300 cloudway,,Austin,TX,78741,,888-758-4389,E,,Public,24 hours daily,,,,,,2.0,,,ChargePoint Network,http://www.chargepoint.com/,GPS,30.241921,-97.72046,2023-10-30,173170,2023-10-30 00:21:09 UTC,,,,2021-01-27,,,,,J1772,US,,,,Public,,Public,,,,,,,,,,,,,,,,,,,,,,,,,,,,,False
33237,ELEC,ORACLE ATX23 G2 2,2300 cloudway,,Austin,TX,78741,,888-758-4389,E,,Public,24 hours daily,,,,,,2.0,,,ChargePoint Network,http://www.chargepoint.com/,GPS,30.241986,-97.720212,2023-10-30,173171,2023-10-30 00:21:09 UTC,,,,2021-01-27,,,,,J1772,US,,,,Public,,Public,,,,,,,,,,,,,,,,,,,,,,,,,,,,,False
33238,ELEC,ORACLE ATX23 G1 5,2300 cloudway,,Austin,TX,78741,,888-758-4389,E,,Public,24 hours daily,,,,,,2.0,,,ChargePoint Network,http://www.chargepoint.com/,GPS,30.241886,-97.720477,2023-10-30,173172,2023-10-30 00:21:09 UTC,,,,2021-01-27,,,,,J1772,US,,,,Public,,Public,,,,,,,,,,,,,,,,,,,,,,,,,,,,,False
33239,ELEC,ORACLE ATX23 G2 4,2300 cloudway,,Austin,TX,78741,,888-758-4389,T,2022-09-09,TEMPORARILY UNAVAILABLE (Public),24 hours daily,,,,,,2.0,,,ChargePoint Network,http://www.chargepoint.com/,GPS,30.241954,-97.720481,2023-10-30,173173,2023-10-30 00:21:09 UTC,,,,2021-01-27,,,,,J1772,US,,,,TEMPORAIREMENT SUSPENDU (Public),,Public,,,,,,,,,,,,,,,,,,,,,,,,,,,,,False
33240,ELEC,ORACLE ATX23 G2 1,2300 cloudway,,Austin,TX,78741,,888-758-4389,T,2023-10-27,TEMPORARILY UNAVAILABLE (Public),24 hours daily,,,,,,2.0,,,ChargePoint Network,http://www.chargepoint.com/,GPS,30.242,-97.720266,2023-10-30,173174,2023-10-30 00:21:09 UTC,,,,2021-01-27,,,,,J1772,US,,,,TEMPORAIREMENT SUSPENDU (Public),,Public,,,,,,,,,,,,,,,,,,,,,,,,,,,,,False
33277,ELEC,PIE AE WEST LAKE DC3,701 S Capital of Texas Hwy,,West Lake Hills,TX,78746,,888-758-4389,E,,Public,24 hours daily,,,,,,,1.0,,ChargePoint Network,http://www.chargepoint.com/,GPS,30.292555,-97.82774,2023-10-30,173216,2023-10-30 00:46:18 UTC,,,,2021-01-27,,,,,CHADEMO J1772COMBO,US,,,,Public,,Public,,,,,,,,,,,,,,,,,,,,,,,,,,,,,False
33278,ELEC,PIE AE WEST LAKE DC 2,701 S Capital of Texas Hwy,,Austin,TX,78746,,888-758-4389,E,,Public,24 hours daily,,,,,,,1.0,,ChargePoint Network,http://www.chargepoint.com/,GPS,30.292521,-97.827741,2023-10-30,173217,2023-10-30 00:46:12 UTC,,,,2021-01-27,,,,,CHADEMO J1772COMBO,US,,,,Public,,Public,,,,,,,,,,,,,,,,,,,,,,,,,,,,,False
33279,ELEC,PIE AE WEST LAKE DC1,701 S Capital of Texas Hwy,,Austin,TX,78746,,888-758-4389,E,,Public,24 hours daily,,,,,,,1.0,,ChargePoint Network,http://www.chargepoint.com/,GPS,30.292495,-97.827741,2023-10-30,173218,2023-10-30 00:46:12 UTC,,,,2021-01-27,,,,,CHADEMO J1772COMBO,US,,,,Public,,Public,,,,,,,,,,,,,,,,,,,,,,,,,,,,,False
33280,ELEC,ENDEAVOR REG VILL WESTLAKE 1,701 S Capital of Texas Hwy,,Austin,TX,78746,,888-758-4389,E,,Public,24 hours daily,,,,,,2.0,,,ChargePoint Network,http://www.chargepoint.com/,GPS,30.291332,-97.826267,2023-10-30,173219,2023-10-30 00:23:47 UTC,,,,2021-01-27,,,,,J1772,US,,,,Public,,Public,,,,,,,,,,,,,,,,,,,,,,,,,,,,,False
33281,ELEC,ENDEAVOR REG VILL WESTLAKE 2,701 S Capital of Texas Hwy,,Austin,TX,78746,,888-758-4389,E,,Public,24 hours daily,,,,,,2.0,,,ChargePoint Network,http://www.chargepoint.com/,GPS,30.291349,-97.826317,2023-10-30,173220,2023-10-30 00:23:45 UTC,,,,2021-01-27,,,,,J1772,US,,,,Public,,Public,,,,,,,,,,,,,,,,,,,,,,,,,,,,,False
33374,ELEC,PALOMA RIDGE PALOMA BDG C #4,13620 Ranch Rd 620 N,,Austin,TX,78717,,888-758-4389,E,,Public,24 hours daily,,,,,,2.0,,,ChargePoint Network,http://www.chargepoint.com/,GPS,30.477999,-97.77797,2023-10-30,173402,2023-10-30 00:37:06 UTC,,,,2021-01-27,,,,,J1772,US,,,,Public,,Public,,,,,,,,,,,,,,,,,,,,,,,,,,,,,False
33375,ELEC,PALOMA RIDGE PALOMA BDG C #2,13620 Ranch Rd 620 N,,Austin,TX,78717,,888-758-4389,E,,Public,24 hours daily,,,,,,2.0,,,ChargePoint Network,http://www.chargepoint.com/,GPS,30.478106,-97.77793,2023-10-30,173403,2023-10-30 00:37:06 UTC,,,,2021-01-27,,,,,J1772,US,,,,Public,,Public,,,,,,,,,,,,,,,,,,,,,,,,,,,,,False
33403,ELEC,PIE AE CONVENTION CTR2,201 E 2nd St,,Austin,TX,78701,,888-758-4389,E,,Public,24 hours daily,,,,,,2.0,,,ChargePoint Network,http://www.chargepoint.com/,GPS,30.263501,-97.742377,2023-10-30,173453,2023-10-30 00:26:10 UTC,,,,2021-01-27,,,,,J1772,US,,,,Public,,Public,,,,,,,,,,,,,,,,,,,,,,,,,,,,,False
33411,ELEC,PIE AE ROSEWOOD PARK2,1182 N Pleasant Valley Rd Rosewood Neighborho,,Austin,TX,78702,,888-758-4389,E,,Public,24 hours daily,,,,,,2.0,,,ChargePoint Network,http://www.chargepoint.com/,GPS,30.271778,-97.713958,2023-10-30,173461,2023-10-30 00:26:05 UTC,,,,2021-01-27,,,,,J1772,US,,,,Public,,Public,,,,,,,,,,,,,,,,,,,,,,,,,,,,,False
33412,ELEC,PIE AE ANIMAL SERVICE4,7201 Levander Loop,,Austin,TX,78721,,888-758-4389,E,,Public,24 hours daily,,,,,,2.0,,,ChargePoint Network,http://www.chargepoint.com/,GPS,30.251539,-97.690799,2023-10-30,173462,2023-10-30 00:25:59 UTC,,,,2021-01-27,,,,,J1772,US,,,,Public,,Public,,,,,,,,,,,,,,,,,,,,,,,,,,,,,False
33419,ELEC,4THANDCHARGE STATION2,1806 E 4th St,,Austin,TX,78702,,888-758-4389,E,,Public,24 hours daily,,,,,,2.0,,,ChargePoint Network,http://www.chargepoint.com/,GPS,30.260364,-97.723785,2023-10-30,173471,2023-10-30 00:22:10 UTC,,,,2021-01-27,,,,,J1772,US,,,,Public,,Public,,,,,,,,,,,,,,,,,,,,,,,,,,,,,False
33420,ELEC,4THANDCHARGE STATION3,1806 E 4th St,,Austin,TX,78702,,888-758-4389,E,,Public,24 hours daily,,,,,,2.0,,,ChargePoint Network,http://www.chargepoint.com/,GPS,30.260703,-97.7241,2023-10-30,173472,2023-10-30 00:22:21 UTC,,,,2021-01-27,,,,,J1772,US,,,,Public,,Public,,,,,,,,,,,,,,,,,,,,,,,,,,,,,False
33421,ELEC,4THANDCHARGE STATION 4,1800 E 4th St,,Austin,TX,78702,,888-758-4389,E,,Public,24 hours daily,,,,,,2.0,,,ChargePoint Network,http://www.chargepoint.com/,GPS,30.260459,-97.724137,2023-10-30,173473,2023-10-30 00:22:10 UTC,,,,2021-01-27,,,,,J1772,US,,,,Public,,Public,,,,,,,,,,,,,,,,,,,,,,,,,,,,,False
33445,ELEC,PARK PLAZA STATION1,115 Sandra Muraida Way,,Austin,TX,78703,,888-758-4389,E,,Public,24 hours daily,,,,,,2.0,,,ChargePoint Network,http://www.chargepoint.com/,GPS,30.268266,-97.755017,2023-10-30,173509,2023-10-30 00:25:55 UTC,,,,2021-01-27,,,,,J1772,US,,,,Public,,Public,,,,,,,,,,,,,,,,,,,,,,,,,,,,,False
33452,ELEC,PIE AE HOWSONBRCHLIBR2,2500 Exposition blvd,,Austin,TX,78703,,888-758-4389,E,,Public,24 hours daily,,,,,,2.0,,,ChargePoint Network,http://www.chargepoint.com/,GPS,30.298396,-97.767903,2023-10-30,173528,2023-10-30 00:26:04 UTC,,,,2021-01-27,,,,,J1772,US,,,,Public,,Public,,,,,,,,,,,,,,,,,,,,,,,,,,,,,False
33635,ELEC,PIE AE SMART CHARGE 2,2016 Centimeter Cir,,Austin,TX,78758,,888-758-4389,E,,Public,24 hours daily,,,,,,2.0,,,ChargePoint Network,http://www.chargepoint.com/,GPS,30.381493,-97.713361,2023-10-30,173866,2023-10-30 00:28:35 UTC,,,,2021-01-27,,,,,J1772,US,,,,Public,,Public,,,,,,,,,,,,,,,,,,,,,,,,,,,,,False
33652,ELEC,1801 E 6TH AUSTIN 1801 3,1805 E 6th St,,Austin,TX,78702,,888-758-4389,E,,Public,24 hours daily,,,,,,2.0,,,ChargePoint Network,http://www.chargepoint.com/,GPS,30.261633,-97.723906,2023-10-30,173888,2023-10-30 00:28:49 UTC,,,,2021-01-27,,,,,J1772,US,,,,Public,,Public,,,,,,,,,,,,,,,,,,,,,,,,,,,,,False
33653,ELEC,1801 E 6TH AUSTIN 1801 2,1805 E 6th St,,Austin,TX,78702,,888-758-4389,E,,Public,24 hours daily,,,,,,2.0,,,ChargePoint Network,http://www.chargepoint.com/,GPS,30.261673,-97.723468,2023-10-30,173889,2023-10-30 00:28:44 UTC,,,,2021-01-27,,,,,J1772,US,,,,Public,,Public,,,,,,,,,,,,,,,,,,,,,,,,,,,,,False
33680,ELEC,AVIATION 1ST FLOOR R,3201 Presidential Blvd,,Austin,TX,78719,,888-758-4389,E,,Public,24 hours daily,,,,,,2.0,,,ChargePoint Network,http://www.chargepoint.com/,GPS,30.204594,-97.669188,2023-10-30,173931,2023-10-30 00:29:25 UTC,,,,2021-01-27,,,,,J1772,US,,,,Public,,Public,,,,,,,,,,,,,,,,,,,,,,,,,,,,,False
33681,ELEC,AVIATION 1ST FLOOR GARAG,3201 Presidential Blvd,,Austin,TX,78719,,888-758-4389,E,,Public,24 hours daily,,,,,,2.0,,,ChargePoint Network,http://www.chargepoint.com/,GPS,30.204582,-97.669275,2023-10-30,173932,2023-10-30 00:29:22 UTC,,,,2021-01-27,,,,,J1772,US,,,,Public,,Public,,,,,,,,,,,,,,,,,,,,,,,,,,,,,False
33915,ELEC,BRANDYWINE AUST FOUR POINTS 1,11120 4 Points Dr,,Austin,TX,78726,,888-758-4389,E,,Public,24 hours daily,,,,,,2.0,,,ChargePoint Network,http://www.chargepoint.com/,GPS,30.405365,-97.84813,2023-10-30,174246,2023-10-30 00:31:25 UTC,,,,2021-01-27,,,,,J1772,US,,,,Public,,Public,,,,,,,,,,,,,,,,,,,,,,,,,,,,,False
33938,ELEC,ACC-AE RIO GRANDE GAR1,824 W 12th St,,Austin,TX,78701,,888-758-4389,E,,Public,24 hours daily,,,,,,2.0,,,ChargePoint Network,http://www.chargepoint.com/,GPS,30.276433,-97.749429,2023-10-30,174277,2023-10-30 00:30:39 UTC,,,,2021-01-27,,,,,J1772,US,,,,Public,,Public,,,,,,,,,,,,,,,,,,,,,,,,,,,,,False
34029,ELEC,AMD GO GREEN P100 FL3 LEFT,7171 Southwest Pkwy,,Austin,TX,78735,,888-758-4389,E,,Public,24 hours daily,,,,,,2.0,,,ChargePoint Network,http://www.chargepoint.com/,GPS,30.251048,-97.863369,2023-10-30,174386,2023-10-30 00:32:48 UTC,,,,2021-01-27,,,,,J1772,US,,,,Public,,Public,,,,,,,,,,,,,,,,,,,,,,,,,,,,,False
34090,ELEC,PARMER AUSTIN PIC #1,507 E Howard Ln 3M Science Center,,Austin,TX,78753,,888-758-4389,E,,Public,24 hours daily,,,,,,2.0,,,ChargePoint Network,http://www.chargepoint.com/,GPS,30.411955,-97.656856,2023-10-30,174488,2023-10-30 00:30:29 UTC,,,,2021-01-27,,,,,J1772,US,,,,Public,,Public,,,,,,,,,,,,,,,,,,,,,,,,,,,,,False
34156,ELEC,PIE AE TRAVIS CO DC 1,316 W 8th St,,Austin,TX,78701,,888-758-4389,E,,Public,24 hours daily,,,,,,,1.0,,ChargePoint Network,http://www.chargepoint.com/,GPS,30.270914,-97.744676,2023-10-30,174566,2023-10-30 00:29:44 UTC,,,,2021-01-27,,,,,CHADEMO J1772COMBO,US,,,,Public,,Public,,,,,,,,,,,,,,,,,,,,,,,,,,,,,False
34206,ELEC,FOUNDRY STATION 3,310 Comal St,,Austin,TX,78702,,888-758-4389,E,,Public,24 hours daily,,,,,,2.0,,,ChargePoint Network,http://www.chargepoint.com/,GPS,30.261051,-97.72782,2023-10-30,174620,2023-10-30 00:33:11 UTC,,,,2021-01-27,,,,,J1772,US,,,,Public,,Public,,,,,,,,,,,,,,,,,,,,,,,,,,,,,False
34207,ELEC,FOUNDRY STATION 2,310 Comal St,,Austin,TX,78702,,888-758-4389,E,,Public,24 hours daily,,,,,,2.0,,,ChargePoint Network,http://www.chargepoint.com/,GPS,30.261097,-97.727847,2023-10-30,174621,2023-10-30 00:33:08 UTC,,,,2021-01-27,,,,,J1772,US,,,,Public,,Public,,,,,,,,,,,,,,,,,,,,,,,,,,,,,False
34208,ELEC,FOUNDRY STATION 4,310 Comal St,,Austin,TX,78702,,888-758-4389,E,,Public,24 hours daily,,,,,,2.0,,,ChargePoint Network,http://www.chargepoint.com/,GPS,30.261084,-97.727822,2023-10-30,174622,2023-10-30 00:27:00 UTC,,,,2021-01-27,,,,,J1772,US,,,,Public,,Public,,,,,,,,,,,,,,,,,,,,,,,,,,,,,False
34209,ELEC,COLONIAL CTR HR STATION 2,607 W 3rd St,,Austin,TX,78703,,888-758-4389,E,,Public,24 hours daily,,,,,,2.0,,,ChargePoint Network,http://www.chargepoint.com/,GPS,30.26652,-97.750175,2023-10-30,174623,2023-10-30 00:21:30 UTC,,,,2021-01-27,,,,,J1772,US,,,,Public,,Public,,,,,,,,,,,,,,,,,,,,,,,,,,,,,False
34439,ELEC,7700 PARMER 7700 PARMER 2,7700 W PARMER LN,,Austin,TX,78729,,888-758-4389,E,,Public,24 hours daily,,,,,,2.0,,,ChargePoint Network,http://www.chargepoint.com/,GPS,30.458594,-97.7526,2023-10-30,174934,2023-10-30 00:34:05 UTC,,,,2021-01-27,,,,,J1772,US,,,,Public,,Public,,,,,,,,,,,,,,,,,,,,,,,,,,,,,False
34482,ELEC,ACC CYP STAT2,ACC Cypress Creek,,Cedar Park,TX,78613,,888-758-4389,E,,Public,24 hours daily,,,,,,2.0,,,ChargePoint Network,http://www.chargepoint.com/,GPS,30.479372,-97.83449,2023-10-30,174991,2023-10-30 00:36:43 UTC,,,,2021-01-27,,,,,J1772,US,,,,Public,,Public,,,,,,,,,,,,,,,,,,,,,,,,,,,,,False
34509,ELEC,PALOMA RIDGE PALOMA BDG C #7,13620 N FM 620,,Austin,TX,78717,,888-758-4389,E,,Public,24 hours daily,,,,,,2.0,,,ChargePoint Network,http://www.chargepoint.com/,GPS,30.477991,-97.77827,2023-10-30,175020,2023-10-30 00:37:07 UTC,,,,2021-01-27,,,,,J1772,US,,,,Public,,Public,,,,,,,,,,,,,,,,,,,,,,,,,,,,,False
34510,ELEC,PALOMA RIDGE PALOMA BDG C #1,13620 N FM 620,,Austin,TX,78717,,888-758-4389,E,,Public,24 hours daily,,,,,,2.0,,,ChargePoint Network,http://www.chargepoint.com/,GPS,30.47781,-97.77879,2023-10-30,175022,2023-10-30 00:37:06 UTC,,,,2021-01-27,,,,,J1772,US,,,,Public,,Public,,,,,,,,,,,,,,,,,,,,,,,,,,,,,False
34511,ELEC,PALOMA RIDGE PALOMA BDG C #8,13620 N FM 620,,Austin,TX,78717,,888-758-4389,E,,Public,24 hours daily,,,,,,2.0,,,ChargePoint Network,http://www.chargepoint.com/,GPS,30.47798,-97.77821,2023-10-30,175023,2023-10-30 00:37:06 UTC,,,,2021-01-27,,,,,J1772,US,,,,Public,,Public,,,,,,,,,,,,,,,,,,,,,,,,,,,,,False
34580,ELEC,ACC-AE NORTHRIDGE1,11928 Stonehollow,,Austin,TX,78758,,888-758-4389,E,,Public,24 hours daily,,,,,,2.0,,,ChargePoint Network,http://www.chargepoint.com/,GPS,30.404225,-97.705798,2023-10-30,175117,2023-10-30 00:32:45 UTC,,,,2021-01-27,,,,,J1772,US,,,,Public,,Public,,,,,,,,,,,,,,,,,,,,,,,,,,,,,False
34874,ELEC,REPUBLICSQUARE GABLES REPUB5,219 W 4th St,,Austin,TX,78701,,888-758-4389,E,,Public,24 hours daily,,,,,,2.0,,,ChargePoint Network,http://www.chargepoint.com/,GPS,30.266691,-97.745766,2023-10-30,175482,2023-10-30 00:37:59 UTC,,,,2021-01-27,,,,,J1772,US,,,,Public,,Public,,,,,,,,,,,,,,,,,,,,,,,,,,,,,False
34949,ELEC,PIE AE SALTILLO DCFC 3,901 E 5th St,,Austin,TX,78702,,888-758-4389,E,,Public,24 hours daily,,,,,,,1.0,,ChargePoint Network,http://www.chargepoint.com/,GPS,30.264207,-97.73375,2023-10-30,175562,2023-10-30 00:38:08 UTC,,,,2021-01-27,,,,,CHADEMO J1772COMBO,US,,,,Public,,Public,,,,,,,,,,,,,,,,,,,,,,,,,,,,,False
34950,ELEC,PIE AE SALTILLO DCFC 2,901 E 5th St,,Austin,TX,78702,,888-758-4389,E,,Public,24 hours daily,,,,,,,1.0,,ChargePoint Network,http://www.chargepoint.com/,GPS,30.264222,-97.733813,2023-10-30,175563,2023-10-30 00:38:08 UTC,,,,2021-01-27,,,,,CHADEMO J1772COMBO,US,,,,Public,,Public,,,,,,,,,,,,,,,,,,,,,,,,,,,,,False
