{
"type": "FeatureCollection",
"crs": { "type": "name", "properties": { "name": "urn:ogc:def:crs:OGC:1.3:CRS84" } },
"features": [
{ "type": "Feature", "properties": { "Phone": "+1 512-383-8300", "Address": "2723 S I-35 Frontage Rd, Austin, TX 78741", "Name": "Chevron" }, "geometry": { "type": "Point", "coordinates": [ -97.7435163, 30.2282465 ] } },
{ "type": "Feature", "properties": { "Phone": "+1 512-383-8300", "Address": "2723 I-35, Austin, TX 78741", "Name": "Jet Stop" }, "geometry": { "type": "Point", "coordinates": [ -97.7432193, 30.2281296 ] } },
{ "type": "Feature", "properties": { "Phone": "+1 512-447-7676", "Address": "2241 S I-35, Austin, TX 78741", "Name": "Shell" }, "geometry": { "type": "Point", "coordinates": [ -97.7399486, 30.2338557 ] } },
{ "type": "Feature", "properties": { "Phone": "+1 512-443-4414", "Address": "2250 E Ben White Blvd, Austin, TX 78741", "Name": "Shell" }, "geometry": { "type": "Point", "coordinates": [ -97.739106299999989, 30.2164804 ] } },
{ "type": "Feature", "properties": { "Phone": null, "Address": "Austin, TX 78704, USA", "Name": "American Fuels" }, "geometry": { "type": "Point", "coordinates": [ -97.7694088, 30.2258594 ] } },
{ "type": "Feature", "properties": { "Phone": "+1 512-804-5338", "Address": "710 E Ben White Blvd # C, Austin, TX 78704", "Name": "Murphy USA" }, "geometry": { "type": "Point", "coordinates": [ -97.7552411, 30.2192082 ] } },
{ "type": "Feature", "properties": { "Phone": "+1 512-476-1776", "Address": "31 N Interstate Hwy 35, Austin, TX 78702", "Name": "Shell" }, "geometry": { "type": "Point", "coordinates": [ -97.736142, 30.2540308 ] } },
{ "type": "Feature", "properties": { "Phone": "+1 512-326-4750", "Address": "525 W Ben White Blvd, Austin, TX 78704", "Name": "The Cornerstore" }, "geometry": { "type": "Point", "coordinates": [ -97.7694832, 30.2257784 ] } },
{ "type": "Feature", "properties": { "Phone": null, "Address": "1320 E Oltorf St, Austin, TX 78704", "Name": "Exxon" }, "geometry": { "type": "Point", "coordinates": [ -97.742153, 30.234251 ] } },
{ "type": "Feature", "properties": { "Phone": "+1 512-443-6304", "Address": "3906 S Congress Ave, Austin, TX 78704", "Name": "Shell" }, "geometry": { "type": "Point", "coordinates": [ -97.7639126, 30.2240193 ] } },
{ "type": "Feature", "properties": { "Phone": null, "Address": "5566-5588 S I-35 Frontage Rd, Austin, TX 78745", "Name": "Fiesta Gas Station" }, "geometry": { "type": "Point", "coordinates": [ -97.7643976, 30.1992649 ] } },
{ "type": "Feature", "properties": { "Phone": "+1 512-707-2550", "Address": "1403 S Lamar Blvd, Austin, TX 78704", "Name": "Mobil" }, "geometry": { "type": "Point", "coordinates": [ -97.7631908, 30.2526241 ] } },
{ "type": "Feature", "properties": { "Phone": "+1 512-358-1278", "Address": "2238 S Lamar Blvd, Austin, TX 78704", "Name": "Shell" }, "geometry": { "type": "Point", "coordinates": [ -97.7737233, 30.2476568 ] } },
{ "type": "Feature", "properties": { "Phone": "+1 512-477-8477", "Address": "400 S Congress Ave, Austin, TX 78704", "Name": "Chevron" }, "geometry": { "type": "Point", "coordinates": [ -97.7472633, 30.2569742 ] } },
{ "type": "Feature", "properties": { "Phone": "+1 512-472-5113", "Address": "30 N Interstate Hwy 35, Austin, TX 78701", "Name": "Chevron" }, "geometry": { "type": "Point", "coordinates": [ -97.7371618, 30.2545408 ] } },
{ "type": "Feature", "properties": { "Phone": "+1 512-445-3400", "Address": "4111 S 1st St, Austin, TX 78745", "Name": "Shell" }, "geometry": { "type": "Point", "coordinates": [ -97.770501, 30.224529 ] } },
{ "type": "Feature", "properties": { "Phone": "+1 512-476-1776", "Address": "31 N Interstate Hwy 35, Austin, TX 78702", "Name": "Refuel" }, "geometry": { "type": "Point", "coordinates": [ -97.7361493, 30.2540231 ] } },
{ "type": "Feature", "properties": { "Phone": "+1 512-445-7351", "Address": "201 W Ben White Blvd, Austin, TX 78704", "Name": "Exxon" }, "geometry": { "type": "Point", "coordinates": [ -97.7648413, 30.2224635 ] } },
{ "type": "Feature", "properties": { "Phone": "+1 512-383-9805", "Address": "Food Mart, 2900 S Lamar Blvd, Austin, TX 78704", "Name": "Valero Gas Station" }, "geometry": { "type": "Point", "coordinates": [ -97.7826916, 30.2435736 ] } },
{ "type": "Feature", "properties": { "Phone": "+1 512-282-3500", "Address": "7901 Thaxton Rd, Austin, TX 78747", "Name": "Bread Basket - Gas Station / Convenience Store / ATM" }, "geometry": { "type": "Point", "coordinates": [ -97.7453094, 30.1589878 ] } },
{ "type": "Feature", "properties": { "Phone": "+1 512-487-5956", "Address": "7930 Thaxton Rd, Austin, TX 78747", "Name": "Shell" }, "geometry": { "type": "Point", "coordinates": [ -97.744043, 30.157481 ] } },
{ "type": "Feature", "properties": { "Phone": "+1 512-465-2776", "Address": "5200 E William Cannon Dr, Austin, TX 78744", "Name": "C MART 7" }, "geometry": { "type": "Point", "coordinates": [ -97.7472955, 30.1805588 ] } },
{ "type": "Feature", "properties": { "Phone": "+1 808-842-7893", "Address": "6607 S Pleasant Valley Rd, Austin, TX 78744", "Name": "Texaco Austin" }, "geometry": { "type": "Point", "coordinates": [ -97.746542, 30.179056 ] } },
{ "type": "Feature", "properties": { "Phone": "+1 512-243-3000", "Address": "9111 FM812 Building 2, Austin, TX 78719", "Name": "Exxon" }, "geometry": { "type": "Point", "coordinates": [ -97.687018, 30.1609863 ] } },
{ "type": "Feature", "properties": { "Phone": null, "Address": "Texas 78744, USA", "Name": "Exxon" }, "geometry": { "type": "Point", "coordinates": [ -97.767615299999989, 30.1532386 ] } },
{ "type": "Feature", "properties": { "Phone": "+1 512-448-3544", "Address": "2512 E Riverside Dr, Austin, TX 78741", "Name": "H‑E‑B Fuel" }, "geometry": { "type": "Point", "coordinates": [ -97.72294, 30.2345681 ] } },
{ "type": "Feature", "properties": { "Phone": "+1 512-382-1646", "Address": "6310 E Ben White Blvd, Austin, TX 78741", "Name": "Shell" }, "geometry": { "type": "Point", "coordinates": [ -97.7113871, 30.2129747 ] } },
{ "type": "Feature", "properties": { "Phone": "+1 512-389-2254", "Address": "7715 E Ben White Blvd, Austin, TX 78741", "Name": "Exxon" }, "geometry": { "type": "Point", "coordinates": [ -97.6890756, 30.2181893 ] } },
{ "type": "Feature", "properties": { "Phone": "+1 512-386-5222", "Address": "2101 Wickersham Ln, Austin, TX 78741", "Name": "Exxon" }, "geometry": { "type": "Point", "coordinates": [ -97.720056899999989, 30.2318883 ] } },
{ "type": "Feature", "properties": { "Phone": "+1 512-905-5411", "Address": "I-35, Austin, TX 78745", "Name": "Texaco" }, "geometry": { "type": "Point", "coordinates": [ -97.7611488, 30.1968106 ] } },
{ "type": "Feature", "properties": { "Phone": "+1 512-584-4005", "Address": "2777 E Hwy 71, Del Valle, TX 78617", "Name": "Exxon" }, "geometry": { "type": "Point", "coordinates": [ -97.6522322, 30.2101674 ] } },
{ "type": "Feature", "properties": { "Phone": "+1 512-444-0743", "Address": "6607 S Pleasant Valley Rd, Austin, TX 78744", "Name": "Citgo" }, "geometry": { "type": "Point", "coordinates": [ -97.7466356, 30.179195 ] } },
{ "type": "Feature", "properties": { "Phone": "+1 512-447-7611", "Address": "6515 S I-35 Frontage Rd, Austin, TX 78744", "Name": "Exxon" }, "geometry": { "type": "Point", "coordinates": [ -97.7694703, 30.1903769 ] } },
{ "type": "Feature", "properties": { "Phone": null, "Address": "4535 State Hwy 71, Del Valle, TX 78617", "Name": "Exxon" }, "geometry": { "type": "Point", "coordinates": [ -97.6064023, 30.1871214 ] } },
{ "type": "Feature", "properties": { "Phone": "+1 210-345-2000", "Address": "3132 E Hwy 71, Del Valle, TX 78617", "Name": "Valero" }, "geometry": { "type": "Point", "coordinates": [ -97.6425798, 30.2036468 ] } },
{ "type": "Feature", "properties": { "Phone": "+1 512-386-7846", "Address": "2453 Bastrop Hwy, Del Valle, TX 78617", "Name": "Shell" }, "geometry": { "type": "Point", "coordinates": [ -97.6587715, 30.2134595 ] } },
{ "type": "Feature", "properties": { "Phone": "+1 855-285-9595", "Address": "3131 E Hwy 71 E, Del Valle, TX 78617", "Name": "Chevron" }, "geometry": { "type": "Point", "coordinates": [ -97.641289, 30.2049333 ] } },
{ "type": "Feature", "properties": { "Phone": "+1 512-247-4715", "Address": "5300 State Hwy 71 E, Del Valle, TX 78617", "Name": "Chevron" }, "geometry": { "type": "Point", "coordinates": [ -97.5467233, 30.184649 ] } },
{ "type": "Feature", "properties": { "Phone": "+1 512-247-2700", "Address": "7200 Elroy Rd, Del Valle, TX 78617", "Name": "Exxon" }, "geometry": { "type": "Point", "coordinates": [ -97.6414288, 30.1554392 ] } },
{ "type": "Feature", "properties": { "Phone": "+1 512-385-8943", "Address": "2001 Bastrop Hwy, Del Valle, TX 78617", "Name": "Valero" }, "geometry": { "type": "Point", "coordinates": [ -97.6684121, 30.2187235 ] } },
{ "type": "Feature", "properties": { "Phone": "+1 512-276-2901", "Address": "5200 Ross Rd, Del Valle, TX 78617", "Name": "Chevron" }, "geometry": { "type": "Point", "coordinates": [ -97.6148358, 30.179373 ] } },
{ "type": "Feature", "properties": { "Phone": null, "Address": "7310 Elroy Rd, Del Valle, TX 78617", "Name": "TEXACO" }, "geometry": { "type": "Point", "coordinates": [ -97.6393822, 30.1533465 ] } },
{ "type": "Feature", "properties": { "Phone": "+1 512-385-1053", "Address": "2777 E Hwy 71 SUITE A, Del Valle, TX 78617", "Name": "Airport Xpress Market" }, "geometry": { "type": "Point", "coordinates": [ -97.651821399999989, 30.2103258 ] } },
{ "type": "Feature", "properties": { "Phone": "+1 737-203-9014", "Address": "3131 E Hwy 71, Del Valle, TX 78617", "Name": "71xpress" }, "geometry": { "type": "Point", "coordinates": [ -97.6414779, 30.2048438 ] } },
{ "type": "Feature", "properties": { "Phone": "+1 512-369-3618", "Address": "2912 FM812, Del Valle, TX 78617", "Name": "Texaco" }, "geometry": { "type": "Point", "coordinates": [ -97.6072213, 30.1015675 ] } },
{ "type": "Feature", "properties": { "Phone": null, "Address": "7310 Elroy Rd, Del Valle, TX 78617", "Name": "BB Market" }, "geometry": { "type": "Point", "coordinates": [ -97.6393822, 30.1533465 ] } },
{ "type": "Feature", "properties": { "Phone": "+1 512-382-0056", "Address": "3132. E. SH 71 SVRD EB, Del Valle, TX 78617", "Name": "Del Valle Market" }, "geometry": { "type": "Point", "coordinates": [ -97.6429655, 30.2033419 ] } },
{ "type": "Feature", "properties": { "Phone": "+1 512-386-7846", "Address": "2453 E State Hwy 71 Service Rd, Del Valle, TX 78617", "Name": "Circle K" }, "geometry": { "type": "Point", "coordinates": [ -97.6586613, 30.2136349 ] } },
{ "type": "Feature", "properties": { "Phone": "+1 512-530-3444", "Address": "2901 Spirit of Texas Dr, Austin, TX 78719", "Name": "Texaco" }, "geometry": { "type": "Point", "coordinates": [ -97.6675203, 30.2105243 ] } },
{ "type": "Feature", "properties": { "Phone": "+1 512-467-4140", "Address": "4712 Lohman Ford Rd, Lago Vista, TX 78645", "Name": "Chevron / Lago Vista Xpress" }, "geometry": { "type": "Point", "coordinates": [ -97.9782316, 30.4331412 ] } },
{ "type": "Feature", "properties": { "Phone": "+1 512-267-2755", "Address": "7501 Lohman Ford Rd, Lago Vista, TX 78645", "Name": "Texaco Lago Vista" }, "geometry": { "type": "Point", "coordinates": [ -97.9767234, 30.4697794 ] } },
{ "type": "Feature", "properties": { "Phone": null, "Address": "RM 1431, Lago Vista, TX 78645", "Name": "Exxon" }, "geometry": { "type": "Point", "coordinates": [ -97.9737577, 30.4736782 ] } },
{ "type": "Feature", "properties": { "Phone": "+1 512-267-2194", "Address": "6004 Lohman Ford Rd, Lago Vista, TX 78645", "Name": "SLR" }, "geometry": { "type": "Point", "coordinates": [ -97.979091, 30.4511562 ] } },
{ "type": "Feature", "properties": { "Phone": "+1 512-267-2755", "Address": "7501 Lohman Ford Rd, Lago Vista, TX 78645", "Name": "Hillside Grocery" }, "geometry": { "type": "Point", "coordinates": [ -97.9764433, 30.4700895 ] } },
{ "type": "Feature", "properties": { "Phone": null, "Address": "304 Flightline Rd, Lago Vista, TX 78645", "Name": "Self Serve Pumps" }, "geometry": { "type": "Point", "coordinates": [ -97.9695008, 30.4967988 ] } },
{ "type": "Feature", "properties": { "Phone": "+1 512-335-6666", "Address": "3505 Wells Branch Pkwy, Austin, TX 78728", "Name": "Texaco" }, "geometry": { "type": "Point", "coordinates": [ -97.6975208, 30.4397941 ] } },
{ "type": "Feature", "properties": { "Phone": "+1 512-989-6366", "Address": "N Interstate Hwy 35, Austin, TX 78728", "Name": "Shell" }, "geometry": { "type": "Point", "coordinates": [ -97.667587, 30.456437 ] } },
{ "type": "Feature", "properties": { "Phone": "+1 512-249-0400", "Address": "6001 W Parmer Ln, Austin, TX 78727", "Name": "H-E-B Fuel" }, "geometry": { "type": "Point", "coordinates": [ -97.74376, 30.4425089 ] } },
{ "type": "Feature", "properties": { "Phone": "+1 512-246-1371", "Address": "2801 La Frontera Blvd, Austin, TX 78728", "Name": "Exxon" }, "geometry": { "type": "Point", "coordinates": [ -97.684641, 30.478645 ] } },
{ "type": "Feature", "properties": { "Phone": "+1 512-258-8411", "Address": "8656 Spicewood Springs Rd, Austin, TX 78759", "Name": "Circle K" }, "geometry": { "type": "Point", "coordinates": [ -97.7710746, 30.4334981 ] } },
{ "type": "Feature", "properties": { "Phone": "+1 210-345-2000", "Address": "8656 Spicewood Springs Rd, Austin, TX 78759", "Name": "Valero" }, "geometry": { "type": "Point", "coordinates": [ -97.7709506, 30.4334871 ] } },
{ "type": "Feature", "properties": { "Phone": "+1 512-251-3759", "Address": "2800 S Heatherwilde Blvd, Pflugerville, TX 78660", "Name": "Shell" }, "geometry": { "type": "Point", "coordinates": [ -97.66106, 30.420133 ] } },
{ "type": "Feature", "properties": { "Phone": "+1 512-250-8002", "Address": "1701 Grand Ave Pkwy, Pflugerville, TX 78660", "Name": "Shell" }, "geometry": { "type": "Point", "coordinates": [ -97.660397, 30.455565 ] } },
{ "type": "Feature", "properties": { "Phone": "+1 512-251-2584", "Address": "1434 Wells Branch Pkwy, Pflugerville, TX 78660", "Name": "H-E-B Fuel" }, "geometry": { "type": "Point", "coordinates": [ -97.6651549, 30.4424127 ] } },
{ "type": "Feature", "properties": { "Phone": "+1 512-520-8060", "Address": "2051 W Farm to Market 1626, Manchaca, TX 78652", "Name": "Beer Geek" }, "geometry": { "type": "Point", "coordinates": [ -97.84798, 30.13884 ] } },
{ "type": "Feature", "properties": { "Phone": "+1 512-351-0251", "Address": "100 Farm to Market 1626, Austin, TX 78748", "Name": "Exxon" }, "geometry": { "type": "Point", "coordinates": [ -97.8060077, 30.1442293 ] } },
{ "type": "Feature", "properties": { "Phone": "+1 512-282-7873", "Address": "2120 Farm to Market 1626, Manchaca, TX 78652", "Name": "Stripes" }, "geometry": { "type": "Point", "coordinates": [ -97.8540079, 30.1345321 ] } },
{ "type": "Feature", "properties": { "Phone": "+1 512-282-7873", "Address": "2120 Farm to Market 1626, Manchaca, TX 78652", "Name": "7-Eleven" }, "geometry": { "type": "Point", "coordinates": [ -97.8540079, 30.1345321 ] } },
{ "type": "Feature", "properties": { "Phone": null, "Address": "5725 E Parker Rd, Manor, TX 78653", "Name": "Speedy Stop 107" }, "geometry": { "type": "Point", "coordinates": [ -97.6139664, 30.3682104 ] } },
{ "type": "Feature", "properties": { "Phone": "+1 512-521-0577", "Address": "5725 E Parmer Ln, Manor, TX 78653", "Name": "Speedy Stop - Harris Branch @ Parmer" }, "geometry": { "type": "Point", "coordinates": [ -97.6146199, 30.3681017 ] } },
{ "type": "Feature", "properties": { "Phone": "+1 512-251-0002", "Address": "201 FM 685, Pflugerville, TX 78660", "Name": "H-E-B Fuel" }, "geometry": { "type": "Point", "coordinates": [ -97.6129728, 30.4370153 ] } },
{ "type": "Feature", "properties": { "Phone": "+1 512-989-3596", "Address": "419 W Pflugerville Pkwy, Pflugerville, TX 78660", "Name": "Shell" }, "geometry": { "type": "Point", "coordinates": [ -97.629704, 30.466521 ] } },
{ "type": "Feature", "properties": { "Phone": "+1 512-251-2515", "Address": "1909 Kelly Ln, Pflugerville, TX 78660", "Name": "Shell" }, "geometry": { "type": "Point", "coordinates": [ -97.5895535, 30.4694523 ] } },
{ "type": "Feature", "properties": { "Phone": "+1 512-251-8428", "Address": "116 E Pecan St, Pflugerville, TX 78660", "Name": "Shell" }, "geometry": { "type": "Point", "coordinates": [ -97.6201586, 30.4397585 ] } },
{ "type": "Feature", "properties": { "Phone": "+1 512-872-8956", "Address": "3101 E Pecan St, Pflugerville, TX 78660", "Name": "QuikTrip" }, "geometry": { "type": "Point", "coordinates": [ -97.5854017, 30.4217694 ] } },
{ "type": "Feature", "properties": { "Phone": "+1 512-989-8573", "Address": "1548 FM 685 #2, Pflugerville, TX 78660", "Name": "Murphy USA" }, "geometry": { "type": "Point", "coordinates": [ -97.6061426, 30.451703 ] } },
{ "type": "Feature", "properties": { "Phone": "+1 512-252-3733", "Address": "618 FM 685, Pflugerville, TX 78660", "Name": "Shell" }, "geometry": { "type": "Point", "coordinates": [ -97.6104624, 30.4423915 ] } },
{ "type": "Feature", "properties": { "Phone": "+1 512-251-3059", "Address": "2609 W Pecan St, Pflugerville, TX 78660", "Name": "Circle K" }, "geometry": { "type": "Point", "coordinates": [ -97.6559026, 30.4481999 ] } },
{ "type": "Feature", "properties": { "Phone": "+1 979-542-2340", "Address": "1033 E Howard Ln, Pflugerville, TX 78660", "Name": "Chevron" }, "geometry": { "type": "Point", "coordinates": [ -97.6483652, 30.409008 ] } },
{ "type": "Feature", "properties": { "Phone": "+1 737-888-6037", "Address": "1901 Kelly Ln, Pflugerville, TX 78660", "Name": "Costco Gas Station" }, "geometry": { "type": "Point", "coordinates": [ -97.5901422, 30.4688186 ] } },
{ "type": "Feature", "properties": { "Phone": "+1 830-693-4219", "Address": "9418 State Hwy 71, Spicewood, TX 78669", "Name": "Exxon" }, "geometry": { "type": "Point", "coordinates": [ -98.159585, 30.461977 ] } },
{ "type": "Feature", "properties": { "Phone": "+1 512-264-0246", "Address": "910 Pace Bend Rd S, Spicewood, TX 78669", "Name": "Pedernales Country Store" }, "geometry": { "type": "Point", "coordinates": [ -98.0624386, 30.4054466 ] } },
{ "type": "Feature", "properties": { "Phone": "+1 512-264-2862", "Address": "1002 Pace Bend Rd S, Spicewood, TX 78669", "Name": "Exxon" }, "geometry": { "type": "Point", "coordinates": [ -98.0630997, 30.4044279 ] } },
{ "type": "Feature", "properties": { "Phone": "+1 512-264-8703", "Address": "3611 Pace Bend Rd S, Spicewood, TX 78669", "Name": "Chevron" }, "geometry": { "type": "Point", "coordinates": [ -98.0853763, 30.3855107 ] } },
{ "type": "Feature", "properties": { "Phone": "+1 512-264-2862", "Address": "1002 Pace Bend Rd S, Spicewood, TX 78669", "Name": "Quick N Save" }, "geometry": { "type": "Point", "coordinates": [ -98.0630997, 30.4044279 ] } },
{ "type": "Feature", "properties": { "Phone": "+1 830-693-4219", "Address": "9418 State Hwy 71, Spicewood, TX 78669", "Name": "Spicewood General Store" }, "geometry": { "type": "Point", "coordinates": [ -98.159639, 30.462288 ] } },
{ "type": "Feature", "properties": { "Phone": "+1 512-333-0620", "Address": "Unnamed Road, Spicewood, TX 78669", "Name": "Resort Ranch Marina" }, "geometry": { "type": "Point", "coordinates": [ -98.0564731, 30.4320882 ] } },
{ "type": "Feature", "properties": { "Phone": null, "Address": "Lakeway, TX 78738", "Name": "LT Market" }, "geometry": { "type": "Point", "coordinates": [ -97.9633585, 30.3277617 ] } },
{ "type": "Feature", "properties": { "Phone": "+1 210-345-2000", "Address": "2100 Pecan St, Pflugerville, TX 78660", "Name": "Valero" }, "geometry": { "type": "Point", "coordinates": [ -97.6487799, 30.4462874 ] } },
{ "type": "Feature", "properties": { "Phone": "+1 210-345-2000", "Address": "2925 W Pecan St, Pflugerville, TX 78660", "Name": "Valero Pflugerville" }, "geometry": { "type": "Point", "coordinates": [ -97.6604594, 30.4489325 ] } },
{ "type": "Feature", "properties": { "Phone": "+1 512-251-0225", "Address": "2100 W Pecan St, Pflugerville, TX 78660", "Name": "Circle K" }, "geometry": { "type": "Point", "coordinates": [ -97.6488305, 30.4462883 ] } },
{ "type": "Feature", "properties": { "Phone": "+1 512-476-4158", "Address": "900 N Interstate Hwy 35, Austin, TX 78701", "Name": "Valero" }, "geometry": { "type": "Point", "coordinates": [ -97.7340536, 30.2689588 ] } },
{ "type": "Feature", "properties": { "Phone": "+1 512-474-7808", "Address": "717 E 7th St, Austin, TX 78701", "Name": "Citgo" }, "geometry": { "type": "Point", "coordinates": [ -97.735059, 30.2667138 ] } },
{ "type": "Feature", "properties": { "Phone": "+1 512-478-9095", "Address": "1200 N Lamar Blvd, Austin, TX 78703", "Name": "Chevron" }, "geometry": { "type": "Point", "coordinates": [ -97.7515004, 30.2771719 ] } },
{ "type": "Feature", "properties": { "Phone": "+1 512-708-8626", "Address": "North Interstate Highway 35, East Ave UNIT 701, Austin, TX 78702", "Name": "Shell" }, "geometry": { "type": "Point", "coordinates": [ -97.733526, 30.266746 ] } },
{ "type": "Feature", "properties": { "Phone": "+1 512-473-2880", "Address": "2400 Rio Grande St, Austin, TX 78705", "Name": "Shell" }, "geometry": { "type": "Point", "coordinates": [ -97.7449391, 30.2880614 ] } },
{ "type": "Feature", "properties": { "Phone": "+1 512-476-3468", "Address": "601 N Interstate Hwy 35, Austin, TX 78702", "Name": "Chevron" }, "geometry": { "type": "Point", "coordinates": [ -97.7338731, 30.2658204 ] } },
{ "type": "Feature", "properties": { "Phone": "+1 512-477-7477", "Address": "2402 Lake Austin Blvd, Austin, TX 78703", "Name": "Exxon" }, "geometry": { "type": "Point", "coordinates": [ -97.7724239, 30.278273 ] } },
{ "type": "Feature", "properties": { "Phone": "+1 512-452-5575", "Address": "3909 Guadalupe St, Austin, TX 78751", "Name": "Circle K" }, "geometry": { "type": "Point", "coordinates": [ -97.7365121, 30.3047529 ] } },
{ "type": "Feature", "properties": { "Phone": "+1 512-206-0210", "Address": "3201 N Lamar Blvd, Austin, TX 78705", "Name": "Shell" }, "geometry": { "type": "Point", "coordinates": [ -97.7451654, 30.3014711 ] } },
{ "type": "Feature", "properties": { "Phone": "+1 512-457-0911", "Address": "1901 E Martin Luther King Jr Blvd, Austin, TX 78702", "Name": "Shell" }, "geometry": { "type": "Point", "coordinates": [ -97.7208728, 30.2796403 ] } },
{ "type": "Feature", "properties": { "Phone": "+1 512-474-1060", "Address": "408 W 15th St, Austin, TX 78701", "Name": "7-Eleven" }, "geometry": { "type": "Point", "coordinates": [ -97.7436664, 30.2785388 ] } },
{ "type": "Feature", "properties": { "Phone": "+1 512-478-4800", "Address": "1621 E Cesar Chavez St, Austin, TX 78702", "Name": "CITGO" }, "geometry": { "type": "Point", "coordinates": [ -97.7270519, 30.2575757 ] } },
{ "type": "Feature", "properties": { "Phone": "+1 512-474-0851", "Address": "917 N Lamar Blvd, Austin, TX 78703", "Name": "7-Eleven" }, "geometry": { "type": "Point", "coordinates": [ -97.7521738, 30.2747223 ] } },
{ "type": "Feature", "properties": { "Phone": "+1 210-345-2000", "Address": "3909 Guadalupe St, Austin, TX 78751", "Name": "Valero" }, "geometry": { "type": "Point", "coordinates": [ -97.7366076, 30.3048073 ] } },
{ "type": "Feature", "properties": { "Phone": "+1 512-476-1953", "Address": "613 Congress Ave., Austin, TX 78701", "Name": "7-Eleven" }, "geometry": { "type": "Point", "coordinates": [ -97.7422432, 30.2684572 ] } },
{ "type": "Feature", "properties": { "Phone": "+1 512-476-4373", "Address": "823 Congress Ave., Austin, TX 78701", "Name": "7-Eleven" }, "geometry": { "type": "Point", "coordinates": [ -97.741631, 30.2705487 ] } },
{ "type": "Feature", "properties": { "Phone": "+1 512-236-1030", "Address": "2700 E 7th St, Austin, TX 78702", "Name": "Diamond Shemrock Gas station" }, "geometry": { "type": "Point", "coordinates": [ -97.7112351, 30.2608391 ] } },
{ "type": "Feature", "properties": { "Phone": "+1 512-322-9056", "Address": "2314 E 7th St, Austin, TX 78702", "Name": "Valero" }, "geometry": { "type": "Point", "coordinates": [ -97.7160212, 30.2614069 ] } },
{ "type": "Feature", "properties": { "Phone": "+1 512-926-4110", "Address": "1149 1/2 Airport Blvd, Austin, TX 78702", "Name": "Leos Gas Station" }, "geometry": { "type": "Point", "coordinates": [ -97.6974426, 30.2732958 ] } },
{ "type": "Feature", "properties": { "Phone": "+1 512-385-5327", "Address": "3112 E Cesar Chavez St, Austin, TX 78702", "Name": "Circle K" }, "geometry": { "type": "Point", "coordinates": [ -97.7092926, 30.252169 ] } },
{ "type": "Feature", "properties": { "Phone": "+1 512-538-0160", "Address": "1425 E 12th St, Austin, TX 78702", "Name": "OM FOOD MART" }, "geometry": { "type": "Point", "coordinates": [ -97.7240198, 30.2729669 ] } },
{ "type": "Feature", "properties": { "Phone": "+1 972-828-0711", "Address": "2020 E 7th St, Austin, TX 78702", "Name": "7 Eleven" }, "geometry": { "type": "Point", "coordinates": [ -97.71903, 30.26201 ] } },
{ "type": "Feature", "properties": { "Phone": "+1 512-236-1030", "Address": "2700 E 7th St, Austin, TX 78702", "Name": "E-Z Food Stop" }, "geometry": { "type": "Point", "coordinates": [ -97.7112351, 30.2608391 ] } },
{ "type": "Feature", "properties": { "Phone": null, "Address": "1425 E 12th St, Austin, TX 78702", "Name": "Major Brand Gas" }, "geometry": { "type": "Point", "coordinates": [ -97.7240447, 30.2729821 ] } },
{ "type": "Feature", "properties": { "Phone": "+1 512-436-9599", "Address": "3839 Airport Blvd, Austin, TX 78722", "Name": "Shell" }, "geometry": { "type": "Point", "coordinates": [ -97.7068495, 30.2889227 ] } },
{ "type": "Feature", "properties": { "Phone": "+1 512-775-6295", "Address": "2204 Airport Blvd, Austin, TX 78722", "Name": "Exxon" }, "geometry": { "type": "Point", "coordinates": [ -97.7062452, 30.2855553 ] } },
{ "type": "Feature", "properties": { "Phone": "+1 512-928-8897", "Address": "1135 Airport Blvd, Austin, TX 78702", "Name": "D J Food & Gas Mart" }, "geometry": { "type": "Point", "coordinates": [ -97.696324, 30.2695384 ] } },
{ "type": "Feature", "properties": { "Phone": "+1 512-322-9056", "Address": "2314 E 7th St, Austin, TX 78702", "Name": "Speedy Pick" }, "geometry": { "type": "Point", "coordinates": [ -97.7160284, 30.2614086 ] } },
{ "type": "Feature", "properties": { "Phone": "+1 512-472-1277", "Address": "3842 Airport Blvd, Austin, TX 78722", "Name": "CITGO" }, "geometry": { "type": "Point", "coordinates": [ -97.7075091, 30.2888856 ] } },
{ "type": "Feature", "properties": { "Phone": "+1 512-478-1905", "Address": "2701 Exposition Blvd, Austin, TX 78703", "Name": "Shell" }, "geometry": { "type": "Point", "coordinates": [ -97.7641348, 30.3032332 ] } },
{ "type": "Feature", "properties": { "Phone": "+1 512-472-9024", "Address": "2400 Exposition Blvd, Austin, TX 78703", "Name": "Texaco Austin" }, "geometry": { "type": "Point", "coordinates": [ -97.7682807, 30.2971005 ] } },
{ "type": "Feature", "properties": { "Phone": "+1 512-452-5614", "Address": "3515 N Lamar Blvd, Austin, TX 78705", "Name": "Mobil" }, "geometry": { "type": "Point", "coordinates": [ -97.743571, 30.3041365 ] } },
{ "type": "Feature", "properties": { "Phone": "+1 512-478-9059", "Address": "2620 Lake Austin Blvd, Austin, TX 78703", "Name": "7-Eleven" }, "geometry": { "type": "Point", "coordinates": [ -97.7756076, 30.2820626 ] } },
{ "type": "Feature", "properties": { "Phone": "+1 512-458-2344", "Address": "4001 Medical Pkwy, Austin, TX 78756", "Name": "Shell" }, "geometry": { "type": "Point", "coordinates": [ -97.7424791, 30.308621 ] } },
{ "type": "Feature", "properties": { "Phone": "+1 512-452-5614", "Address": "3515 N Lamar Blvd, Austin, TX 78705", "Name": "Circle K" }, "geometry": { "type": "Point", "coordinates": [ -97.7434783, 30.3040992 ] } },
{ "type": "Feature", "properties": { "Phone": "+1 512-666-5607", "Address": "3201 N Lamar Blvd, Austin, TX 78705", "Name": "MUCHOS #3 (Shell Gas station)" }, "geometry": { "type": "Point", "coordinates": [ -97.745047, 30.30154 ] } },
{ "type": "Feature", "properties": { "Phone": "+1 512-472-9024", "Address": "2400 Exposition Blvd, Austin, TX 78703", "Name": "Tarrytown Texaco" }, "geometry": { "type": "Point", "coordinates": [ -97.7683514, 30.2972019 ] } },
{ "type": "Feature", "properties": { "Phone": "+1 855-285-9595", "Address": "1525 Barton Springs Rd, Austin, TX 78704", "Name": "Chevron" }, "geometry": { "type": "Point", "coordinates": [ -97.761147, 30.2616933 ] } },
{ "type": "Feature", "properties": { "Phone": "+1 512-478-9095", "Address": "1200 N Lamar Blvd, Austin, TX 78703", "Name": "Kwik Mart" }, "geometry": { "type": "Point", "coordinates": [ -97.751477, 30.2771742 ] } },
{ "type": "Feature", "properties": { "Phone": "+1 512-327-0624", "Address": "2800 Bee Cave Rd, Austin, TX 78746", "Name": "Shell" }, "geometry": { "type": "Point", "coordinates": [ -97.788815, 30.2715183 ] } },
{ "type": "Feature", "properties": { "Phone": "+1 512-380-0551", "Address": "1309 W 45th St, Austin, TX 78756", "Name": "Exxon" }, "geometry": { "type": "Point", "coordinates": [ -97.7414245, 30.3150648 ] } },
{ "type": "Feature", "properties": { "Phone": "+1 512-443-4607", "Address": "2907 S 1st St, Austin, TX 78704", "Name": "Exxon" }, "geometry": { "type": "Point", "coordinates": [ -97.7632431, 30.2360684 ] } },
{ "type": "Feature", "properties": { "Phone": "+1 512-444-8331", "Address": "2125 W Ben White Blvd, Austin, TX 78704", "Name": "Shell" }, "geometry": { "type": "Point", "coordinates": [ -97.791754, 30.230953 ] } },
{ "type": "Feature", "properties": { "Phone": "+1 512-443-3083", "Address": "2025 W Ben White Blvd, Austin, TX 78704", "Name": "Randalls Fuel Station" }, "geometry": { "type": "Point", "coordinates": [ -97.7893576, 30.2295378 ] } },
{ "type": "Feature", "properties": { "Phone": "+1 512-440-7188", "Address": "539 W Oltorf St, Austin, TX 78704", "Name": "Texaco Austin" }, "geometry": { "type": "Point", "coordinates": [ -97.759518, 30.241766 ] } },
{ "type": "Feature", "properties": { "Phone": "+1 512-444-6193", "Address": "1222 S Lamar Blvd, Austin, TX 78704", "Name": "Sunny's" }, "geometry": { "type": "Point", "coordinates": [ -97.7630225, 30.2542275 ] } },
{ "type": "Feature", "properties": { "Phone": "+1 512-416-6900", "Address": "3909 S Congress Ave, Austin, TX 78704", "Name": "Chevron" }, "geometry": { "type": "Point", "coordinates": [ -97.7629667, 30.2233873 ] } },
{ "type": "Feature", "properties": { "Phone": "+1 512-441-8089", "Address": "4205 Menchaca Rd, Austin, TX 78704", "Name": "Texan Market" }, "geometry": { "type": "Point", "coordinates": [ -97.7872745, 30.2310963 ] } },
{ "type": "Feature", "properties": { "Phone": "+1 512-444-8331", "Address": "2125 W Ben White Blvd, Austin, TX 78704", "Name": "Refuel" }, "geometry": { "type": "Point", "coordinates": [ -97.7917873, 30.2309369 ] } },
{ "type": "Feature", "properties": { "Phone": "+1 512-444-6193", "Address": "1222 S Lamar Blvd, Austin, TX 78741", "Name": "Exxon" }, "geometry": { "type": "Point", "coordinates": [ -97.7628613, 30.2542124 ] } },
{ "type": "Feature", "properties": { "Phone": "+1 210-345-2000", "Address": "608 S Lamar Blvd, Austin, TX 78704", "Name": "Valero" }, "geometry": { "type": "Point", "coordinates": [ -97.7592677, 30.2591878 ] } },
{ "type": "Feature", "properties": { "Phone": "+1 512-236-1483", "Address": "2819 Guadalupe St, Austin, TX 78705", "Name": "STAR STOP 74" }, "geometry": { "type": "Point", "coordinates": [ -97.7422007, 30.2948367 ] } },
{ "type": "Feature", "properties": { "Phone": "+1 512-458-6625", "Address": "3828 N Interstate 35 Frontage Rd, Austin, TX 78751", "Name": "Shell" }, "geometry": { "type": "Point", "coordinates": [ -97.719818, 30.2953622 ] } },
{ "type": "Feature", "properties": { "Phone": "+1 512-458-6625", "Address": "3828 NORTH N Interstate Hwy 35, Austin, TX 78751", "Name": "STAR STOP 35" }, "geometry": { "type": "Point", "coordinates": [ -97.7198759, 30.2954455 ] } },
{ "type": "Feature", "properties": { "Phone": "+1 512-474-0885", "Address": "2600 Guadalupe St, Austin, TX 78705", "Name": "7-Eleven" }, "geometry": { "type": "Point", "coordinates": [ -97.7418188, 30.2907397 ] } },
{ "type": "Feature", "properties": { "Phone": "+1 512-481-0374", "Address": "3735 N Interstate Hwy 35, Austin, TX 78723", "Name": "Chevron Austin" }, "geometry": { "type": "Point", "coordinates": [ -97.7192734, 30.2944577 ] } },
{ "type": "Feature", "properties": { "Phone": "+1 210-345-2000", "Address": "3807 N Interstate Hwy 35, Austin, TX 78722", "Name": "Valero" }, "geometry": { "type": "Point", "coordinates": [ -97.71909, 30.2947448 ] } },
{ "type": "Feature", "properties": { "Phone": "+1 512-472-6777", "Address": "2101 Rio Grande St # 1002, Austin, TX 78705", "Name": "Rio Mart" }, "geometry": { "type": "Point", "coordinates": [ -97.744933, 30.2841401 ] } },
{ "type": "Feature", "properties": { "Phone": null, "Address": "3515 N Lamar Blvd, Austin, TX 78705", "Name": "Snax Basket" }, "geometry": { "type": "Point", "coordinates": [ -97.7434633, 30.3040867 ] } },
{ "type": "Feature", "properties": { "Phone": "+1 925-842-1000", "Address": "3735 N Interstate 35 Frontage Rd, Austin, TX 78722", "Name": "S & S Inc" }, "geometry": { "type": "Point", "coordinates": [ -97.719287799999989, 30.294266 ] } },
{ "type": "Feature", "properties": { "Phone": "+1 512-837-9920", "Address": "2616 W Braker Ln, Austin, TX 78758", "Name": "Exxon" }, "geometry": { "type": "Point", "coordinates": [ -97.721172599999989, 30.3915485 ] } },
{ "type": "Feature", "properties": { "Phone": "+1 512-691-0050", "Address": "861 E Braker Ln, Austin, TX 78753", "Name": "QuikTrip" }, "geometry": { "type": "Point", "coordinates": [ -97.673602, 30.3753599 ] } },
{ "type": "Feature", "properties": { "Phone": "+1 512-832-5923", "Address": "9414 N Lamar Blvd, Austin, TX 78753", "Name": "H-E-B Fuel" }, "geometry": { "type": "Point", "coordinates": [ -97.6962839, 30.3630936 ] } },
{ "type": "Feature", "properties": { "Phone": null, "Address": "1316 W Braker Ln, Austin, TX 78758", "Name": "7-11" }, "geometry": { "type": "Point", "coordinates": [ -97.6950155, 30.3862025 ] } },
{ "type": "Feature", "properties": { "Phone": "+1 512-837-3354", "Address": "1921 Cedar Bend Dr, Austin, TX 78758", "Name": "Exxon" }, "geometry": { "type": "Point", "coordinates": [ -97.6975464, 30.4081221 ] } },
{ "type": "Feature", "properties": { "Phone": "+1 512-837-4094", "Address": "9061 Research Blvd, Austin, TX 78758", "Name": "Exxon" }, "geometry": { "type": "Point", "coordinates": [ -97.7268088, 30.3741521 ] } },
{ "type": "Feature", "properties": { "Phone": "+1 972-828-0711", "Address": "701 W Braker Ln, Austin, TX 78753", "Name": "Exxon" }, "geometry": { "type": "Point", "coordinates": [ -97.6856204, 30.3810668 ] } },
{ "type": "Feature", "properties": { "Phone": "+1 512-973-8143", "Address": "500 W Canyon Ridge Dr, Austin, TX 78753", "Name": "H-E-B Fuel" }, "geometry": { "type": "Point", "coordinates": [ -97.673950499999989, 30.4060636 ] } },
{ "type": "Feature", "properties": { "Phone": "+1 512-342-6818", "Address": "7510 N Mopac Expy, Austin, TX 78731", "Name": "Exxon" }, "geometry": { "type": "Point", "coordinates": [ -97.7470695, 30.3571585 ] } },
{ "type": "Feature", "properties": { "Phone": "+1 512-835-7767", "Address": "2015 W Parmer Ln, Austin, TX 78727", "Name": "Chevron" }, "geometry": { "type": "Point", "coordinates": [ -97.6957371, 30.4153523 ] } },
{ "type": "Feature", "properties": { "Phone": "+1 512-719-3210", "Address": "1100 W Parmer Ln, Austin, TX 78727", "Name": "Exxon" }, "geometry": { "type": "Point", "coordinates": [ -97.6787659, 30.4084036 ] } },
{ "type": "Feature", "properties": { "Phone": "+1 512-775-6295", "Address": "6134 W E Hwy 290, Austin, TX 78749", "Name": "Mobil" }, "geometry": { "type": "Point", "coordinates": [ -97.85628, 30.2357 ] } },
{ "type": "Feature", "properties": { "Phone": "+1 512-358-9306", "Address": "5445 US-290, Austin, TX 78735", "Name": "Exxon" }, "geometry": { "type": "Point", "coordinates": [ -97.8403026, 30.2357817 ] } },
{ "type": "Feature", "properties": { "Phone": "+1 512-288-4337", "Address": "8314 State Hwy 71, Austin, TX 78735", "Name": "Shell" }, "geometry": { "type": "Point", "coordinates": [ -97.888607, 30.24754 ] } },
{ "type": "Feature", "properties": { "Phone": "+1 512-288-6800", "Address": "7216 State Hwy 71, Austin, TX 78735", "Name": "Exxon" }, "geometry": { "type": "Point", "coordinates": [ -97.877693, 30.2366774 ] } },
{ "type": "Feature", "properties": { "Phone": "+1 512-329-5554", "Address": "2451 S Capital of Texas Hwy, Austin, TX 78746", "Name": "Shell" }, "geometry": { "type": "Point", "coordinates": [ -97.8157984, 30.2634297 ] } },
{ "type": "Feature", "properties": { "Phone": "+1 512-891-0535", "Address": "6412 US-290, Austin, TX 78735", "Name": "Circle K" }, "geometry": { "type": "Point", "coordinates": [ -97.8617357, 30.2350115 ] } },
{ "type": "Feature", "properties": { "Phone": "+1 512-301-4727", "Address": "6109 W William Cannon Dr, Austin, TX 78749", "Name": "Exxon" }, "geometry": { "type": "Point", "coordinates": [ -97.8646393, 30.22907 ] } },
{ "type": "Feature", "properties": { "Phone": "+1 832-234-3600", "Address": "4912 Monterey Oaks Blvd, Austin, TX 78749", "Name": "Chevron" }, "geometry": { "type": "Point", "coordinates": [ -97.8392158, 30.235806 ] } },
{ "type": "Feature", "properties": { "Phone": "+1 512-383-5769", "Address": "6903 Brodie Ln, Austin, TX&nbsp, Austin, TX 78745", "Name": "STAR STOP 82" }, "geometry": { "type": "Point", "coordinates": [ -97.829780899999989, 30.2140472 ] } },
{ "type": "Feature", "properties": { "Phone": "+1 713-781-4610", "Address": "4912 Monterey Oaks Blvd, Austin, TX 78749", "Name": "STAR STOP 38" }, "geometry": { "type": "Point", "coordinates": [ -97.8390662, 30.2351907 ] } },
{ "type": "Feature", "properties": { "Phone": "+1 512-383-5769", "Address": "6903 Brodie Ln, Austin, TX 78745", "Name": "Chevron" }, "geometry": { "type": "Point", "coordinates": [ -97.829801800000013, 30.2140312 ] } },
{ "type": "Feature", "properties": { "Phone": "+1 512-288-6800", "Address": "7216 State Hwy 71, Austin, TX 78735", "Name": "Scenic Brook Foodmart" }, "geometry": { "type": "Point", "coordinates": [ -97.8775676, 30.2369066 ] } },
{ "type": "Feature", "properties": { "Phone": "+1 512-892-2758", "Address": "4600 W William Cannon Dr, Austin, TX 78749", "Name": "Circle K" }, "geometry": { "type": "Point", "coordinates": [ -97.8418202, 30.2238019 ] } },
{ "type": "Feature", "properties": { "Phone": "+1 512-288-3530", "Address": "7622 State Hwy 71, Austin, TX 78735", "Name": "Circle K" }, "geometry": { "type": "Point", "coordinates": [ -97.8811172, 30.2416998 ] } },
{ "type": "Feature", "properties": { "Phone": "+1 512-992-0273", "Address": "8225 State Hwy 71, Austin, TX 78735", "Name": "Exxon" }, "geometry": { "type": "Point", "coordinates": [ -97.8880455, 30.2463192 ] } },
{ "type": "Feature", "properties": { "Phone": "+1 512-698-9811", "Address": "623 W Dittmar Rd, Austin, TX 78745", "Name": "Texaco" }, "geometry": { "type": "Point", "coordinates": [ -97.7923862, 30.1834215 ] } },
{ "type": "Feature", "properties": { "Phone": "+1 512-892-2758", "Address": "4600 W William Cannon Dr, Austin, TX 78749", "Name": "Valero" }, "geometry": { "type": "Point", "coordinates": [ -97.8419835, 30.2237847 ] } },
{ "type": "Feature", "properties": { "Phone": "+1 512-347-1077", "Address": "6804 Bee Cave Rd, Austin, TX 78746", "Name": "Chevron" }, "geometry": { "type": "Point", "coordinates": [ -97.8375073, 30.2996761 ] } },
{ "type": "Feature", "properties": { "Phone": "+1 210-345-2000", "Address": "8201 Cross Park Dr, Austin, TX 78754", "Name": "VALERO" }, "geometry": { "type": "Point", "coordinates": [ -97.666941600000015, 30.330473 ] } },
{ "type": "Feature", "properties": { "Phone": "+1 512-835-4077", "Address": "9411 Dessau Rd, Austin, TX 78754", "Name": "Shell" }, "geometry": { "type": "Point", "coordinates": [ -97.6749669, 30.3518836 ] } },
{ "type": "Feature", "properties": { "Phone": "+1 512-386-1001", "Address": "8807 Cameron Rd BLG 2, Austin, TX 78754", "Name": "JD'S #8 C-STORE" }, "geometry": { "type": "Point", "coordinates": [ -97.6774897, 30.3451929 ] } },
{ "type": "Feature", "properties": { "Phone": "+1 512-834-9758", "Address": "1425 E Rundberg Ln, Austin, TX 78754", "Name": "Shell" }, "geometry": { "type": "Point", "coordinates": [ -97.676367, 30.3505995 ] } },
{ "type": "Feature", "properties": { "Phone": "+1 512-399-0150", "Address": "1420 E Anderson Ln, Austin, TX 78752", "Name": "Shell" }, "geometry": { "type": "Point", "coordinates": [ -97.6867522, 30.3333654 ] } },
{ "type": "Feature", "properties": { "Phone": "+1 512-339-0150", "Address": "1420 E Anderson Ln, Austin, TX 78752", "Name": "Circle K" }, "geometry": { "type": "Point", "coordinates": [ -97.6866669, 30.3334273 ] } },
{ "type": "Feature", "properties": { "Phone": "+1 512-339-6008", "Address": "8807 Cameron Rd, Austin, TX 78754", "Name": "Exxon" }, "geometry": { "type": "Point", "coordinates": [ -97.6772487, 30.3452818 ] } },
{ "type": "Feature", "properties": { "Phone": "+1 512-339-8373", "Address": "1900 E Anderson Ln Suite101, Austin, TX 78752", "Name": "Exxon" }, "geometry": { "type": "Point", "coordinates": [ -97.6799772, 30.330399 ] } },
{ "type": "Feature", "properties": { "Phone": null, "Address": "Austin, TX 78752, USA", "Name": "Star Stop" }, "geometry": { "type": "Point", "coordinates": [ -97.6857498, 30.3318341 ] } },
{ "type": "Feature", "properties": { "Phone": null, "Address": "Austin, TX 78752, USA", "Name": "Conoco" }, "geometry": { "type": "Point", "coordinates": [ -97.6902912, 30.3286574 ] } },
{ "type": "Feature", "properties": { "Phone": "+1 512-371-8888", "Address": "7701 Cameron Rd, Austin, TX 78752", "Name": "Chevron" }, "geometry": { "type": "Point", "coordinates": [ -97.686204500000017, 30.3318118 ] } },
{ "type": "Feature", "properties": { "Phone": "+1 512-852-8493", "Address": "9001 Cameron Rd, Austin, TX 78754", "Name": "Refuel" }, "geometry": { "type": "Point", "coordinates": [ -97.676824599999989, 30.346463 ] } },
{ "type": "Feature", "properties": { "Phone": "+1 512-453-5756", "Address": "7509 N Interstate Hwy 35, Austin, TX 78752", "Name": "Shell" }, "geometry": { "type": "Point", "coordinates": [ -97.701390600000011, 30.3359894 ] } },
{ "type": "Feature", "properties": { "Phone": "+1 210-345-2000", "Address": "Ferguson Ln, Austin, TX 78754", "Name": "Valero" }, "geometry": { "type": "Point", "coordinates": [ -97.6767414, 30.3464042 ] } },
{ "type": "Feature", "properties": { "Phone": "+1 512-520-4145", "Address": "6303 Cameron Rd, Austin, TX 78723", "Name": "Chevron - Windsor Convenience Store" }, "geometry": { "type": "Point", "coordinates": [ -97.6960551, 30.320277 ] } },
{ "type": "Feature", "properties": { "Phone": "+1 512-821-9126", "Address": "9401 N Interstate Hwy 35, Austin, TX 78753", "Name": "Exxon" }, "geometry": { "type": "Point", "coordinates": [ -97.686991, 30.358156 ] } },
{ "type": "Feature", "properties": { "Phone": "+1 512-524-4217", "Address": "4429 Duval St, Austin, TX 78751", "Name": "Shell" }, "geometry": { "type": "Point", "coordinates": [ -97.7245313, 30.306746 ] } },
{ "type": "Feature", "properties": { "Phone": "+1 512-322-9214", "Address": "2101 Manor Rd, Austin, TX 78722", "Name": "Manor Express Inc" }, "geometry": { "type": "Point", "coordinates": [ -97.7200273, 30.2839645 ] } },
{ "type": "Feature", "properties": { "Phone": "+1 512-452-7974", "Address": "4301 Duval St, Austin, TX 78751", "Name": "Texaco" }, "geometry": { "type": "Point", "coordinates": [ -97.7258776, 30.3047741 ] } },
{ "type": "Feature", "properties": { "Phone": "+1 512-451-1067", "Address": "5740 N Interstate 35 Frontage Rd, Austin, TX 78751", "Name": "Shell" }, "geometry": { "type": "Point", "coordinates": [ -97.7079605, 30.3182984 ] } },
{ "type": "Feature", "properties": { "Phone": "+1 512-327-0262", "Address": "98 Redbud Trail, West Lake Hills, TX 78746", "Name": "Shell" }, "geometry": { "type": "Point", "coordinates": [ -97.7980404, 30.2922972 ] } },
{ "type": "Feature", "properties": { "Phone": "+1 512-462-4700", "Address": "1727 E Riverside Dr, Austin, TX 78741", "Name": "GULF" }, "geometry": { "type": "Point", "coordinates": [ -97.7301219, 30.2433077 ] } },
{ "type": "Feature", "properties": { "Phone": "+1 512-328-3240", "Address": "2710 Bee Cave Rd, Austin, TX 78746", "Name": "Chevron" }, "geometry": { "type": "Point", "coordinates": [ -97.7861156, 30.270678 ] } },
{ "type": "Feature", "properties": { "Phone": "+1 512-306-1302", "Address": "3310 N Capital of Texas Hwy, Austin, TX 78746", "Name": "Shell" }, "geometry": { "type": "Point", "coordinates": [ -97.809888, 30.331317 ] } },
{ "type": "Feature", "properties": { "Phone": "+1 512-447-6557", "Address": "5625 West Gate Blvd, Austin, TX 78745", "Name": "Exxon" }, "geometry": { "type": "Point", "coordinates": [ -97.8065957, 30.219291 ] } },
{ "type": "Feature", "properties": { "Phone": "+1 512-445-5558", "Address": "1913 W Ben White Blvd, Austin, TX 78704", "Name": "Austex Food Mart/Disc Conoco" }, "geometry": { "type": "Point", "coordinates": [ -97.788336, 30.229267 ] } },
{ "type": "Feature", "properties": { "Phone": "+1 512-297-2469", "Address": "500 W William Cannon Dr Ste 616, Austin, TX 78745", "Name": "Shell" }, "geometry": { "type": "Point", "coordinates": [ -97.7872577, 30.1972888 ] } },
{ "type": "Feature", "properties": { "Phone": "+1 512-447-7799", "Address": "1405 W William Cannon Dr, Austin, TX 78745", "Name": "Valero" }, "geometry": { "type": "Point", "coordinates": [ -97.7993948, 30.2001378 ] } },
{ "type": "Feature", "properties": { "Phone": null, "Address": "1911 W Ben White Blvd, Austin, TX 78745", "Name": "Gas station" }, "geometry": { "type": "Point", "coordinates": [ -97.7880671, 30.2291978 ] } },
{ "type": "Feature", "properties": { "Phone": "+1 512-326-8787", "Address": "719 W William Cannon Dr, Austin, TX 78745", "Name": "Chevron" }, "geometry": { "type": "Point", "coordinates": [ -97.7882388, 30.1969644 ] } },
{ "type": "Feature", "properties": { "Phone": null, "Address": "2800 W William Cannon Dr, Austin, TX 78745", "Name": "Texaco Gas" }, "geometry": { "type": "Point", "coordinates": [ -97.8175604, 30.2082246 ] } },
{ "type": "Feature", "properties": { "Phone": "+1 512-892-2686", "Address": "4545 S Lamar Blvd, Austin, TX 78745", "Name": "Shell" }, "geometry": { "type": "Point", "coordinates": [ -97.8010344, 30.2317168 ] } },
{ "type": "Feature", "properties": { "Phone": "+1 512-447-5465", "Address": "7814 S 1st St AUS 14, Austin, TX 78745", "Name": "Chevron" }, "geometry": { "type": "Point", "coordinates": [ -97.79251, 30.1844285 ] } },
{ "type": "Feature", "properties": { "Phone": "+1 512-442-5446", "Address": "7200 Menchaca Rd, Austin, TX 78745", "Name": "Exxon" }, "geometry": { "type": "Point", "coordinates": [ -97.80784, 30.19989 ] } },
{ "type": "Feature", "properties": { "Phone": "+1 512-447-7799", "Address": "1405 W William Cannon Dr, Austin, TX 78745", "Name": "Circle K" }, "geometry": { "type": "Point", "coordinates": [ -97.7994061, 30.2001345 ] } },
{ "type": "Feature", "properties": { "Phone": null, "Address": "5401 Menchaca Rd, Austin, TX 78745", "Name": "Mobil" }, "geometry": { "type": "Point", "coordinates": [ -97.79601, 30.21724 ] } },
{ "type": "Feature", "properties": { "Phone": "+1 512-707-7250", "Address": "5401 Menchaca Rd, Austin, TX 78745", "Name": "Express Food Mart" }, "geometry": { "type": "Point", "coordinates": [ -97.795936, 30.217187 ] } },
{ "type": "Feature", "properties": { "Phone": "+1 512-326-8787", "Address": "719 W William Cannon Dr, Austin, TX 78745", "Name": "Texaco" }, "geometry": { "type": "Point", "coordinates": [ -97.7889089, 30.1962635 ] } },
{ "type": "Feature", "properties": { "Phone": "+1 512-328-6540", "Address": "3625 Bee Cave Rd, Austin, TX 78746", "Name": "Texaco" }, "geometry": { "type": "Point", "coordinates": [ -97.805813, 30.278064 ] } },
{ "type": "Feature", "properties": { "Phone": "+1 512-650-4319", "Address": "2601 W Braker Ln, Austin, TX 78758", "Name": "Sunoco Gas Station" }, "geometry": { "type": "Point", "coordinates": [ -97.7197027, 30.3902257 ] } },
{ "type": "Feature", "properties": { "Phone": "+1 512-836-2566", "Address": "1600 Ohlen Rd, Austin, TX 78758", "Name": "CITGO" }, "geometry": { "type": "Point", "coordinates": [ -97.7150547, 30.3643013 ] } },
{ "type": "Feature", "properties": { "Phone": "+1 512-343-8262", "Address": "9700 N Capital of Texas Hwy, Austin, TX 78759", "Name": "Sam's Club Gas Station" }, "geometry": { "type": "Point", "coordinates": [ -97.7433614, 30.3909644 ] } },
{ "type": "Feature", "properties": { "Phone": "+1 512-837-3354", "Address": "1921 Cedar Bend Dr, Austin, TX 78758", "Name": "J J Mart" }, "geometry": { "type": "Point", "coordinates": [ -97.6976077, 30.4080684 ] } },
{ "type": "Feature", "properties": { "Phone": null, "Address": "3100 1 2, 3100 1/2 Spirit of Texas Dr, Austin, TX 78719", "Name": "Clean Energy" }, "geometry": { "type": "Point", "coordinates": [ -97.6717515, 30.2086433 ] } },
{ "type": "Feature", "properties": { "Phone": "+1 512-530-3444", "Address": "2901 Spirit of Texas Dr, Austin, TX 78719", "Name": "ABIA Retail Center" }, "geometry": { "type": "Point", "coordinates": [ -97.6668088, 30.2112579 ] } },
{ "type": "Feature", "properties": { "Phone": "+1 512-243-1118", "Address": "6422 S Hwy 183, Austin, TX 78744", "Name": "Texaco" }, "geometry": { "type": "Point", "coordinates": [ -97.6932145, 30.164903 ] } },
{ "type": "Feature", "properties": { "Phone": "+1 512-243-1525", "Address": "9401 S Hwy 183, Austin, TX 78747", "Name": "Chevron" }, "geometry": { "type": "Point", "coordinates": [ -97.6946859, 30.1148104 ] } },
{ "type": "Feature", "properties": { "Phone": "+1 512-871-6294", "Address": "4802 S Hwy 183 SB, Austin, TX 78744", "Name": "QuikTrip" }, "geometry": { "type": "Point", "coordinates": [ -97.6888951, 30.1827515 ] } },
{ "type": "Feature", "properties": { "Phone": "+1 512-386-7742", "Address": "7310 E Riverside Dr, Austin, TX 78741", "Name": "Mobil" }, "geometry": { "type": "Point", "coordinates": [ -97.6935396, 30.2207217 ] } },
{ "type": "Feature", "properties": { "Phone": "+1 512-385-6616", "Address": "1211 Montopolis Dr, Austin, TX 78741", "Name": "Shell" }, "geometry": { "type": "Point", "coordinates": [ -97.6991975, 30.2313924 ] } },
{ "type": "Feature", "properties": { "Phone": "+1 512-243-1621", "Address": "6500 S Hwy 183, Austin, TX 78744", "Name": "Circle K" }, "geometry": { "type": "Point", "coordinates": [ -97.6937196, 30.1640807 ] } },
{ "type": "Feature", "properties": { "Phone": "+1 210-345-2000", "Address": "4829 S Hwy 183, Austin, TX 78744", "Name": "Valero" }, "geometry": { "type": "Point", "coordinates": [ -97.6872434, 30.1809027 ] } },
{ "type": "Feature", "properties": { "Phone": "+1 512-336-7700", "Address": "7301 N FM 620, Austin, TX 78726", "Name": "H-E-B Fuel" }, "geometry": { "type": "Point", "coordinates": [ -97.8525625, 30.4032012 ] } },
{ "type": "Feature", "properties": { "Phone": "+1 512-927-6123", "Address": "4509 E Martin Luther King Jr Blvd, Austin, TX 78721", "Name": "Shell" }, "geometry": { "type": "Point", "coordinates": [ -97.6831427, 30.2854397 ] } },
{ "type": "Feature", "properties": { "Phone": "+1 512-929-5075", "Address": "3926 Ed Bluestein Blvd, Austin, TX 78721", "Name": "Exxon" }, "geometry": { "type": "Point", "coordinates": [ -97.6686109, 30.2753583 ] } },
{ "type": "Feature", "properties": { "Phone": "+1 737-222-5160", "Address": "4509 E Martin Luther King Jr Blvd, Austin, TX 78721", "Name": "MLK Express" }, "geometry": { "type": "Point", "coordinates": [ -97.6833354, 30.2853682 ] } },
{ "type": "Feature", "properties": { "Phone": "+1 512-929-8713", "Address": "6105 Techni Center Dr, Austin, TX 78721", "Name": "Shell" }, "geometry": { "type": "Point", "coordinates": [ -97.6686559, 30.2757529 ] } },
{ "type": "Feature", "properties": { "Phone": "+1 512-926-9553", "Address": "4611 E Martin Luther King Jr Blvd, Austin, TX 78721", "Name": "Graboost" }, "geometry": { "type": "Point", "coordinates": [ -97.681712, 30.285723 ] } },
{ "type": "Feature", "properties": { "Phone": "+1 512-382-6068", "Address": "Chevron, 6401 FM 969 Unit 100, Austin, TX 78724", "Name": "Hyw 969 Foodmart (Chevron)" }, "geometry": { "type": "Point", "coordinates": [ -97.6607291, 30.284627 ] } },
{ "type": "Feature", "properties": { "Phone": "+1 512-926-9553", "Address": "4611 E Martin Luther King Jr Blvd, Austin, TX 78721", "Name": "Chevron" }, "geometry": { "type": "Point", "coordinates": [ -97.6819539, 30.2858547 ] } },
{ "type": "Feature", "properties": { "Phone": "+1 737-208-8790", "Address": "6111 FM 969, Austin, TX 78724", "Name": "QuikTrip" }, "geometry": { "type": "Point", "coordinates": [ -97.6641405, 30.2845177 ] } },
{ "type": "Feature", "properties": { "Phone": null, "Address": "6000 FM 969, Austin, TX 78724", "Name": "7eleven" }, "geometry": { "type": "Point", "coordinates": [ -97.6641793, 30.2860806 ] } },
{ "type": "Feature", "properties": { "Phone": "+1 512-472-1277", "Address": "3842 Airport Blvd, Austin, TX 78722", "Name": "MAIN STOP" }, "geometry": { "type": "Point", "coordinates": [ -97.707765, 30.2889439 ] } },
{ "type": "Feature", "properties": { "Phone": "+1 512-472-5330", "Address": "2204 Airport Blvd, Austin, TX 78722", "Name": "Shell" }, "geometry": { "type": "Point", "coordinates": [ -97.7062575, 30.2855677 ] } },
{ "type": "Feature", "properties": { "Phone": "+1 512-436-9599", "Address": "3839 Airport Blvd, Austin, TX 78722", "Name": "kwik star" }, "geometry": { "type": "Point", "coordinates": [ -97.7066888, 30.2888741 ] } },
{ "type": "Feature", "properties": { "Phone": "+1 512-382-6068", "Address": "6401 FM 969, Austin, TX 78724", "Name": "Chevron 969" }, "geometry": { "type": "Point", "coordinates": [ -97.6605257, 30.284298 ] } },
{ "type": "Feature", "properties": { "Phone": "+1 512-527-4258", "Address": "6004 FM 969, Austin, TX 78721", "Name": "7-Eleven" }, "geometry": { "type": "Point", "coordinates": [ -97.6638818, 30.2861277 ] } },
{ "type": "Feature", "properties": { "Phone": "+1 512-928-3597", "Address": "1149 Airport Blvd, Austin, TX 78702", "Name": "KWICK IN" }, "geometry": { "type": "Point", "coordinates": [ -97.697385, 30.273027 ] } },
{ "type": "Feature", "properties": { "Phone": "+1 210-345-2000", "Address": "2103 Manor Rd, Austin, TX 78722", "Name": "Valero" }, "geometry": { "type": "Point", "coordinates": [ -97.7199357, 30.2838857 ] } },
{ "type": "Feature", "properties": { "Phone": "+1 512-453-3692", "Address": "4511 Airport Blvd, Austin, TX 78751", "Name": "Exxon" }, "geometry": { "type": "Point", "coordinates": [ -97.715749, 30.3039 ] } },
{ "type": "Feature", "properties": { "Phone": "+1 512-927-6113", "Address": "5210 Manor Rd, Austin, TX 78723", "Name": "Shell" }, "geometry": { "type": "Point", "coordinates": [ -97.6862974, 30.2998812 ] } },
{ "type": "Feature", "properties": { "Phone": "+1 512-391-1664", "Address": "3848 Airport Blvd, Austin, TX 78722", "Name": "7-Eleven" }, "geometry": { "type": "Point", "coordinates": [ -97.707649, 30.2893903 ] } },
{ "type": "Feature", "properties": { "Phone": "+1 512-926-0541", "Address": "5029 Manor Rd, Austin, TX 78723", "Name": "Mobil" }, "geometry": { "type": "Point", "coordinates": [ -97.6869807, 30.2978877 ] } },
{ "type": "Feature", "properties": { "Phone": "+1 512-467-7041", "Address": "1660 E 51st St, Austin, TX 78723", "Name": "Exxon" }, "geometry": { "type": "Point", "coordinates": [ -97.6990902, 30.3044961 ] } },
{ "type": "Feature", "properties": { "Phone": "+1 512-928-3858", "Address": "6615 Berkman Dr, Austin, TX 78723", "Name": "Shell" }, "geometry": { "type": "Point", "coordinates": [ -97.6890851, 30.3194256 ] } },
{ "type": "Feature", "properties": { "Phone": "+1 512-928-1453", "Address": "6518 Ed Bluestein Blvd, Austin, TX 78723", "Name": "Exxon" }, "geometry": { "type": "Point", "coordinates": [ -97.6616972, 30.3034028 ] } },
{ "type": "Feature", "properties": { "Phone": "+1 512-467-6705", "Address": "6715 E Hwy 290, Austin, TX 78723", "Name": "Shell" }, "geometry": { "type": "Point", "coordinates": [ -97.6914734, 30.3206524 ] } },
{ "type": "Feature", "properties": { "Phone": "+1 512-474-2199", "Address": "1801 E 51st St, Austin, TX 78723", "Name": "H-E-B Fuel" }, "geometry": { "type": "Point", "coordinates": [ -97.6983288, 30.3025341 ] } },
{ "type": "Feature", "properties": { "Phone": "+1 512-374-1501", "Address": "5517 Cameron Rd, Austin, TX 78723", "Name": "Exxon" }, "geometry": { "type": "Point", "coordinates": [ -97.704562599999988, 30.3130519 ] } },
{ "type": "Feature", "properties": { "Phone": "+1 512-928-0193", "Address": "7101 Ed Bluestein Blvd, Austin, TX 78723", "Name": "Shell" }, "geometry": { "type": "Point", "coordinates": [ -97.661566, 30.312519 ] } },
{ "type": "Feature", "properties": { "Phone": "+1 512-467-7041", "Address": "1660 E 51st St, Austin, TX 78723", "Name": "Speedy Stop" }, "geometry": { "type": "Point", "coordinates": [ -97.6989008, 30.3047737 ] } },
{ "type": "Feature", "properties": { "Phone": "+1 512-926-2763", "Address": "5301 Manor Rd, Austin, TX 78723", "Name": "Stop N Express (Valero)" }, "geometry": { "type": "Point", "coordinates": [ -97.6854624, 30.2999979 ] } },
{ "type": "Feature", "properties": { "Phone": "+1 512-284-7669", "Address": "5801 Interregional Hwy, Austin, TX 78723", "Name": "Chevron Austin" }, "geometry": { "type": "Point", "coordinates": [ -97.7066647, 30.3186444 ] } },
{ "type": "Feature", "properties": { "Phone": "+1 512-927-2498", "Address": "4607 Loyola Ln, Austin, TX 78723", "Name": "Mobil" }, "geometry": { "type": "Point", "coordinates": [ -97.6672222, 30.3097222 ] } },
{ "type": "Feature", "properties": { "Phone": "+1 512-929-0308", "Address": "4311 Springdale Rd, Austin, TX 78723", "Name": "Mobil" }, "geometry": { "type": "Point", "coordinates": [ -97.6818282, 30.286334 ] } },
{ "type": "Feature", "properties": { "Phone": "+1 855-285-9595", "Address": "8600 E Hwy 290, Austin, TX 78723", "Name": "Chevron" }, "geometry": { "type": "Point", "coordinates": [ -97.6939953, 30.3214638 ] } },
{ "type": "Feature", "properties": { "Phone": "+1 512-933-0387", "Address": "6413 Manor Rd, Austin, TX 78723", "Name": "Kool Corner" }, "geometry": { "type": "Point", "coordinates": [ -97.6709906, 30.3082544 ] } },
{ "type": "Feature", "properties": { "Phone": "+1 512-284-7669", "Address": "5801 N Interstate Hwy 35, Austin, TX 78723", "Name": "STAR STOP 75" }, "geometry": { "type": "Point", "coordinates": [ -97.7065179, 30.318653 ] } },
{ "type": "Feature", "properties": { "Phone": null, "Address": "5107 Manor Rd, Austin, TX 78723", "Name": "7-Eleven" }, "geometry": { "type": "Point", "coordinates": [ -97.68668, 30.29826 ] } },
{ "type": "Feature", "properties": { "Phone": "+1 512-394-6363", "Address": "8602 FM 969, Austin, TX 78724", "Name": "969 Xpress (Texaco)" }, "geometry": { "type": "Point", "coordinates": [ -97.636636, 30.2770766 ] } },
{ "type": "Feature", "properties": { "Phone": "+1 512-929-1877", "Address": "6575 Decker Ln, Austin, TX 78724", "Name": "Mobil" }, "geometry": { "type": "Point", "coordinates": [ -97.6278503, 30.2903746 ] } },
{ "type": "Feature", "properties": { "Phone": "+1 512-928-1888", "Address": "7801 FM 969, Austin, TX 78724", "Name": "Chevron" }, "geometry": { "type": "Point", "coordinates": [ -97.6454016, 30.2796535 ] } },
{ "type": "Feature", "properties": { "Phone": "+1 512-339-6008", "Address": "6505 Decker Ln Building 2, Austin, TX 78724", "Name": "Exxon" }, "geometry": { "type": "Point", "coordinates": [ -97.6286355, 30.290913 ] } },
{ "type": "Feature", "properties": { "Phone": "+1 512-576-0610", "Address": "8602 FM 969, Austin, TX 78724", "Name": "Texaco" }, "geometry": { "type": "Point", "coordinates": [ -97.6366088, 30.2767718 ] } },
{ "type": "Feature", "properties": { "Phone": null, "Address": "Loyola Ln, Austin, TX 78724", "Name": "Quality Fuel" }, "geometry": { "type": "Point", "coordinates": [ -97.6456113, 30.2993699 ] } },
{ "type": "Feature", "properties": { "Phone": "+1 512-272-4957", "Address": "9704 Giles Ln, Austin, TX 78754", "Name": "Exxon" }, "geometry": { "type": "Point", "coordinates": [ -97.624140400000016, 30.3315772 ] } },
{ "type": "Feature", "properties": { "Phone": "+1 281-565-1111", "Address": "4925 Craigwood Dr, Austin, TX 78725", "Name": "Texaco" }, "geometry": { "type": "Point", "coordinates": [ -97.6595837, 30.2844059 ] } },
{ "type": "Feature", "properties": { "Phone": "+1 512-250-8002", "Address": "7709 N FM 620, Austin, TX 78726", "Name": "Shell" }, "geometry": { "type": "Point", "coordinates": [ -97.849738699999989, 30.410602 ] } },
{ "type": "Feature", "properties": { "Phone": "+1 512-335-9290", "Address": "7002 Ranch Rd 620 N, Austin, TX 78732", "Name": "Texaco" }, "geometry": { "type": "Point", "coordinates": [ -97.854562, 30.403554 ] } },
{ "type": "Feature", "properties": { "Phone": "+1 512-251-3875", "Address": "1800 Scofield Ridge Pkwy, Austin, TX 78727", "Name": "Chevron" }, "geometry": { "type": "Point", "coordinates": [ -97.6817094, 30.4288784 ] } },
{ "type": "Feature", "properties": { "Phone": "+1 512-873-0175", "Address": "3801 W Parmer Ln, Austin, TX 78727", "Name": "Chevron Austin" }, "geometry": { "type": "Point", "coordinates": [ -97.713382599999989, 30.424107 ] } },
{ "type": "Feature", "properties": { "Phone": "+1 512-835-7767", "Address": "2015 W Parmer Ln, Austin, TX 78727", "Name": "Food Basket" }, "geometry": { "type": "Point", "coordinates": [ -97.6957624, 30.4153079 ] } },
{ "type": "Feature", "properties": { "Phone": "+1 512-251-5551", "Address": "N Interstate 35 Frontage Rd, Austin, TX 78728", "Name": "Circle K/Valero" }, "geometry": { "type": "Point", "coordinates": [ -97.672033900000017, 30.4250395 ] } },
{ "type": "Feature", "properties": { "Phone": "+1 512-990-2815", "Address": "1779 Wells Branch Pkwy, Austin, TX 78728", "Name": "Circle K" }, "geometry": { "type": "Point", "coordinates": [ -97.674875, 30.435486 ] } },
{ "type": "Feature", "properties": { "Phone": "+1 512-335-6666", "Address": "3505 Wells Branch Pkwy, Austin, TX 78728", "Name": "Wells Branch Food Mart" }, "geometry": { "type": "Point", "coordinates": [ -97.6974282, 30.4395897 ] } },
{ "type": "Feature", "properties": { "Phone": "+1 512-633-2798", "Address": "1600 Wells Branch Pkwy, Austin, TX 78728", "Name": "7-Eleven" }, "geometry": { "type": "Point", "coordinates": [ -97.6700926, 30.4405662 ] } },
{ "type": "Feature", "properties": { "Phone": null, "Address": "Round Rock, TX 78728, USA", "Name": "Mobil" }, "geometry": { "type": "Point", "coordinates": [ -97.6799098, 30.4740718 ] } },
{ "type": "Feature", "properties": { "Phone": null, "Address": "3310 N Capital of Texas Hwy, Austin, TX 78746", "Name": "V-Power" }, "geometry": { "type": "Point", "coordinates": [ -97.8098694, 30.3312721 ] } },
{ "type": "Feature", "properties": { "Phone": "+1 512-795-0018", "Address": "3550 Far W Blvd, Austin, TX 78731", "Name": "Chevron Austin" }, "geometry": { "type": "Point", "coordinates": [ -97.7532356, 30.3538579 ] } },
{ "type": "Feature", "properties": { "Phone": "+1 855-285-9595", "Address": "3324 Northland Dr, Austin, TX 78731", "Name": "Chevron Austin" }, "geometry": { "type": "Point", "coordinates": [ -97.75666, 30.3375728 ] } },
{ "type": "Feature", "properties": { "Phone": "+1 512-345-1388", "Address": "3701 N Hills Dr, Austin, TX 78731", "Name": "Shell" }, "geometry": { "type": "Point", "coordinates": [ -97.7584227, 30.3530072 ] } },
{ "type": "Feature", "properties": { "Phone": "+1 512-453-4504", "Address": "3800 Dry Creek Dr, Austin, TX 78731", "Name": "Exxon" }, "geometry": { "type": "Point", "coordinates": [ -97.7635937, 30.3426506 ] } },
{ "type": "Feature", "properties": { "Phone": "+1 512-420-0881", "Address": "3310 Northland Dr, Austin, TX 78731", "Name": "Shell" }, "geometry": { "type": "Point", "coordinates": [ -97.756148, 30.337177 ] } },
{ "type": "Feature", "properties": { "Phone": "+1 512-795-0899", "Address": "7007 Village Center Dr, Austin, TX 78731", "Name": "Texaco" }, "geometry": { "type": "Point", "coordinates": [ -97.7567768, 30.3520097 ] } },
{ "type": "Feature", "properties": { "Phone": null, "Address": "3310 Northland Dr, Austin, TX 78731", "Name": "J & K Food Mart" }, "geometry": { "type": "Point", "coordinates": [ -97.756067, 30.337365 ] } },
{ "type": "Feature", "properties": { "Phone": "+1 210-345-2000", "Address": "8097 Mesa Dr, Austin, TX 78731", "Name": "Valero" }, "geometry": { "type": "Point", "coordinates": [ -97.7570294, 30.3716327 ] } },
{ "type": "Feature", "properties": { "Phone": "+1 512-795-0018", "Address": "3550 Far W Blvd, Austin, TX 78731", "Name": "7-Eleven" }, "geometry": { "type": "Point", "coordinates": [ -97.7534266, 30.3540927 ] } },
{ "type": "Feature", "properties": { "Phone": "+1 512-453-2901", "Address": "2321 W N Loop Blvd, Austin, TX 78756", "Name": "Around the Corner Store" }, "geometry": { "type": "Point", "coordinates": [ -97.7433137, 30.3249213 ] } },
{ "type": "Feature", "properties": { "Phone": "+1 512-345-8463", "Address": "8143 Mesa Dr, Austin, TX 78759", "Name": "Chevron" }, "geometry": { "type": "Point", "coordinates": [ -97.7554007, 30.3740503 ] } },
{ "type": "Feature", "properties": { "Phone": "+1 512-345-4488", "Address": "8101 Mesa Dr, Austin, TX 78759", "Name": "Circle K" }, "geometry": { "type": "Point", "coordinates": [ -97.7568143, 30.3717031 ] } },
{ "type": "Feature", "properties": { "Phone": "+1 512-453-5799", "Address": "5300 Burnet Rd, Austin, TX 78756", "Name": "Shell" }, "geometry": { "type": "Point", "coordinates": [ -97.7398667, 30.3260425 ] } },
{ "type": "Feature", "properties": { "Phone": "+1 512-371-7305", "Address": "3324 Northland Dr, Austin, TX 78731", "Name": "7-Eleven" }, "geometry": { "type": "Point", "coordinates": [ -97.756334099999989, 30.3374708 ] } },
{ "type": "Feature", "properties": { "Phone": "+1 512-266-8822", "Address": "2900 N Quinlan Park Rd, Austin, TX 78732", "Name": "Shell" }, "geometry": { "type": "Point", "coordinates": [ -97.892567, 30.369499 ] } },
{ "type": "Feature", "properties": { "Phone": "+1 512-266-3168", "Address": "5145 N FM 620, Austin, TX 78732", "Name": "Randalls Fuel Station" }, "geometry": { "type": "Point", "coordinates": [ -97.8851148, 30.3890944 ] } },
{ "type": "Feature", "properties": { "Phone": "+1 512-266-8822", "Address": "2900 N Quinlan Park Rd # 300, Austin, TX 78732", "Name": "Refuel" }, "geometry": { "type": "Point", "coordinates": [ -97.892236, 30.3695087 ] } },
{ "type": "Feature", "properties": { "Phone": "+1 512-266-3142", "Address": "4610 Ranch Rd 620 N, Austin, TX 78732", "Name": "Marshall Ford Food Mart" }, "geometry": { "type": "Point", "coordinates": [ -97.890863599999989, 30.3897057 ] } },
{ "type": "Feature", "properties": { "Phone": "+1 512-305-3417", "Address": "1405 Ranch Rd 620 S, Austin, TX 78734", "Name": "Shell" }, "geometry": { "type": "Point", "coordinates": [ -97.963301, 30.3493198 ] } },
{ "type": "Feature", "properties": { "Phone": "+1 512-263-9809", "Address": "1500 Cuernavaca Dr N, Austin, TX 78733", "Name": "Valero" }, "geometry": { "type": "Point", "coordinates": [ -97.8648252, 30.3385783 ] } },
{ "type": "Feature", "properties": { "Phone": "+1 512-263-5005", "Address": "700 Cuernavaca Dr N, Austin, TX 78733", "Name": "Exxon" }, "geometry": { "type": "Point", "coordinates": [ -97.8692421, 30.3317111 ] } },
{ "type": "Feature", "properties": { "Phone": "+1 512-263-5005", "Address": "700 Cuernavaca Dr N, Austin, TX 78733", "Name": "Cuernavaca Market" }, "geometry": { "type": "Point", "coordinates": [ -97.869246300000015, 30.3318982 ] } },
{ "type": "Feature", "properties": { "Phone": "+1 512-263-5582", "Address": "8947 Bee Cave Rd #204, Austin, TX 78746", "Name": "Circle K" }, "geometry": { "type": "Point", "coordinates": [ -97.8639619, 30.3176432 ] } },
{ "type": "Feature", "properties": { "Phone": "+1 512-795-9593", "Address": "1001 Canyon Edge Dr, Austin, TX 78733", "Name": "Bartling Oil Co" }, "geometry": { "type": "Point", "coordinates": [ -97.8672234, 30.3332484 ] } },
{ "type": "Feature", "properties": { "Phone": "+1 512-328-0688", "Address": "7110 Bee Cave Rd Ste. B, Austin, TX 78746", "Name": "Texaco" }, "geometry": { "type": "Point", "coordinates": [ -97.8397819, 30.3035745 ] } },
{ "type": "Feature", "properties": { "Phone": "+1 512-328-6541", "Address": "6111 Bee Cave Rd, Austin, TX 78746", "Name": "Seven Eleven" }, "geometry": { "type": "Point", "coordinates": [ -97.829877, 30.295832 ] } },
{ "type": "Feature", "properties": { "Phone": "+1 512-288-8820", "Address": "9341 State Hwy 71, Austin, TX 78735", "Name": "Valero" }, "geometry": { "type": "Point", "coordinates": [ -97.9075294, 30.2597372 ] } },
{ "type": "Feature", "properties": { "Phone": "+1 512-263-9809", "Address": "1500 Cuernavaca Dr N, Austin, TX 78733", "Name": "Lakehills Grocery" }, "geometry": { "type": "Point", "coordinates": [ -97.8651636, 30.3385825 ] } },
{ "type": "Feature", "properties": { "Phone": "+1 855-285-9595", "Address": "8624 State Hwy 71, Austin, TX 78735", "Name": "Chevron" }, "geometry": { "type": "Point", "coordinates": [ -97.8933491, 30.2501661 ] } },
{ "type": "Feature", "properties": { "Phone": "+1 512-288-4339", "Address": "8314 State Hwy 71, Austin, TX 78735", "Name": "Stop 71" }, "geometry": { "type": "Point", "coordinates": [ -97.8886895, 30.2476803 ] } },
{ "type": "Feature", "properties": { "Phone": "+1 512-263-6420", "Address": "2305 Ranch Rd 620 S, Lakeway, TX 78734", "Name": "Randalls Fuel Station" }, "geometry": { "type": "Point", "coordinates": [ -97.9681117, 30.3410196 ] } },
{ "type": "Feature", "properties": { "Phone": "+1 512-263-3909", "Address": "2103 Ranch Rd 620 S, Lakeway, TX 78734", "Name": "Lakeway Valero" }, "geometry": { "type": "Point", "coordinates": [ -97.9666607, 30.3427661 ] } },
{ "type": "Feature", "properties": { "Phone": "+1 512-266-2955", "Address": "201 Ranch Rd 620 N, Lakeway, TX 78734", "Name": "Texaco Austin" }, "geometry": { "type": "Point", "coordinates": [ -97.9500795, 30.3670131 ] } },
{ "type": "Feature", "properties": { "Phone": "+1 512-599-5800", "Address": "2000 Ranch Rd 620 S, Lakeway, TX 78734", "Name": "H-E-B Fuel" }, "geometry": { "type": "Point", "coordinates": [ -97.966430100000011, 30.3449451 ] } },
{ "type": "Feature", "properties": { "Phone": "+1 512-263-2813", "Address": "1405 Ranch Rd 620, Lakeway, TX 78734", "Name": "Circle K" }, "geometry": { "type": "Point", "coordinates": [ -97.9630359, 30.3492885 ] } },
{ "type": "Feature", "properties": { "Phone": "+1 512-263-2959", "Address": "509 Ranch Rd 620 S, Austin, TX 78734", "Name": "LAKEWAY" }, "geometry": { "type": "Point", "coordinates": [ -97.9538406, 30.3595247 ] } },
{ "type": "Feature", "properties": { "Phone": "+1 512-266-9767", "Address": "3636 Ranch Rd 620 N, Austin, TX 78734", "Name": "Exxon" }, "geometry": { "type": "Point", "coordinates": [ -97.9282204, 30.397968 ] } },
{ "type": "Feature", "properties": { "Phone": "+1 512-263-3140", "Address": "903 Ranch Rd 620, Austin, TX 78734", "Name": "Exxon" }, "geometry": { "type": "Point", "coordinates": [ -97.9603028, 30.3549683 ] } },
{ "type": "Feature", "properties": { "Phone": "+1 512-261-6633", "Address": "2200 Lakeway Blvd, Lakeway, TX 78734", "Name": "Texaco" }, "geometry": { "type": "Point", "coordinates": [ -97.9794451, 30.3578147 ] } },
{ "type": "Feature", "properties": { "Phone": "+1 512-266-2955", "Address": "201 Ranch Rd 620 N, Lakeway, TX 78734", "Name": "MERITO FOOD MART" }, "geometry": { "type": "Point", "coordinates": [ -97.950104599999989, 30.3668705 ] } },
{ "type": "Feature", "properties": { "Phone": "+1 512-263-6420", "Address": "2305 Ranch Rd 620 S, Austin, TX 78734", "Name": "Safeway Fuel Station" }, "geometry": { "type": "Point", "coordinates": [ -97.9679595, 30.3410635 ] } },
{ "type": "Feature", "properties": { "Phone": null, "Address": "5001 Hudson Bend Rd, Austin, TX 78734", "Name": "Shamrock" }, "geometry": { "type": "Point", "coordinates": [ -97.926592899999989, 30.4123747 ] } },
{ "type": "Feature", "properties": { "Phone": "+1 830-672-9574", "Address": "3325 Ranch Rd 620, Austin, TX 78738", "Name": "Texaco Austin" }, "geometry": { "type": "Point", "coordinates": [ -97.963677, 30.3275237 ] } },
{ "type": "Feature", "properties": { "Phone": "+1 512-263-0900", "Address": "3325 Ranch Rd 620 S, Austin, TX 78738", "Name": "Lake Travis Country Market" }, "geometry": { "type": "Point", "coordinates": [ -97.9633843, 30.3277811 ] } },
{ "type": "Feature", "properties": { "Phone": "+1 512-263-3909", "Address": "2103 Ranch Rd 620 S, Lakeway, TX 78734", "Name": "TXB (Texas Born)" }, "geometry": { "type": "Point", "coordinates": [ -97.966502, 30.3427216 ] } },
{ "type": "Feature", "properties": { "Phone": "+1 512-266-9767", "Address": "3636 Ranch Rd 620 N, Austin, TX 78734", "Name": "7-Eleven" }, "geometry": { "type": "Point", "coordinates": [ -97.9281708, 30.3982394 ] } },
{ "type": "Feature", "properties": { "Phone": "+1 512-261-6633", "Address": "2200 Lakeway Blvd, Lakeway, TX 78734", "Name": "Lakeway Texaco" }, "geometry": { "type": "Point", "coordinates": [ -97.9794341, 30.3577859 ] } },
{ "type": "Feature", "properties": { "Phone": "+1 512-288-3530", "Address": "7622 State Hwy 71, Austin, TX 78735", "Name": "Valero" }, "geometry": { "type": "Point", "coordinates": [ -97.8810993, 30.2416412 ] } },
{ "type": "Feature", "properties": { "Phone": null, "Address": "8624 State Hwy 71, Austin, TX 78735", "Name": "Chevron" }, "geometry": { "type": "Point", "coordinates": [ -97.8931108, 30.2501334 ] } },
{ "type": "Feature", "properties": { "Phone": "+1 512-899-2811", "Address": "5445 US-290, Austin, TX 78735", "Name": "7-Eleven" }, "geometry": { "type": "Point", "coordinates": [ -97.840225, 30.2357238 ] } },
{ "type": "Feature", "properties": { "Phone": "+1 512-301-1241", "Address": "9920 US-290 W, Austin, TX 78736", "Name": "Shell" }, "geometry": { "type": "Point", "coordinates": [ -97.9419185, 30.2283894 ] } },
{ "type": "Feature", "properties": { "Phone": "+1 512-301-1241", "Address": "9920 US-290, Austin, TX 78736", "Name": "Circle K" }, "geometry": { "type": "Point", "coordinates": [ -97.9424586, 30.2278356 ] } },
{ "type": "Feature", "properties": { "Phone": "+1 210-345-2000", "Address": "9520 US-290, Austin, TX 78736", "Name": "Valero" }, "geometry": { "type": "Point", "coordinates": [ -97.9344073, 30.2308879 ] } },
{ "type": "Feature", "properties": { "Phone": "+1 512-282-4114", "Address": "3008 W Slaughter Ln, Austin, TX 78748", "Name": "Shell" }, "geometry": { "type": "Point", "coordinates": [ -97.840392, 30.179462 ] } },
{ "type": "Feature", "properties": { "Phone": "+1 512-280-2533", "Address": "3419 W Slaughter Ln, Austin, TX 78748", "Name": "Valero" }, "geometry": { "type": "Point", "coordinates": [ -97.8496716, 30.1830623 ] } },
{ "type": "Feature", "properties": { "Phone": "+1 512-280-2533", "Address": "3419 W Slaughter Ln, Austin, TX 78748", "Name": "Circle K" }, "geometry": { "type": "Point", "coordinates": [ -97.8496389, 30.182965 ] } },
{ "type": "Feature", "properties": { "Phone": "+1 512-705-7556", "Address": "5000 W Slaughter Ln, Austin, TX 78749", "Name": "7-Eleven" }, "geometry": { "type": "Point", "coordinates": [ -97.8628165, 30.1993178 ] } },
{ "type": "Feature", "properties": { "Phone": "+1 512-362-8710", "Address": "8906 Brodie Ln, Austin, TX 78748", "Name": "Big Bucket 3" }, "geometry": { "type": "Point", "coordinates": [ -97.8432236, 30.1952385 ] } },
{ "type": "Feature", "properties": { "Phone": "+1 210-345-2000", "Address": "8900-8906 Brodie Ln, Austin, TX 78748", "Name": "Valero" }, "geometry": { "type": "Point", "coordinates": [ -97.842799899999989, 30.1951779 ] } },
{ "type": "Feature", "properties": { "Phone": "+1 512-282-4114", "Address": "3008 W Slaughter Ln # B, Austin, TX 78748", "Name": "C-Mart #10" }, "geometry": { "type": "Point", "coordinates": [ -97.8402571, 30.1796538 ] } },
{ "type": "Feature", "properties": { "Phone": "+1 512-280-3928", "Address": "8205 Brodie Ln, Austin, TX 78745", "Name": "Circle K" }, "geometry": { "type": "Point", "coordinates": [ -97.8380124, 30.2014394 ] } },
{ "type": "Feature", "properties": { "Phone": "+1 512-292-1450", "Address": "9618 Menchaca Rd, Austin, TX 78748", "Name": "Texaco" }, "geometry": { "type": "Point", "coordinates": [ -97.8229327, 30.1759537 ] } },
{ "type": "Feature", "properties": { "Phone": "+1 512-282-0182", "Address": "2110 W Slaughter Ln, Austin, TX 78748", "Name": "H-E-B Fuel" }, "geometry": { "type": "Point", "coordinates": [ -97.8259057, 30.1743196 ] } },
{ "type": "Feature", "properties": { "Phone": "+1 512-892-2566", "Address": "3431 W William Cannon Dr, Austin, TX 78745", "Name": "Exxon" }, "geometry": { "type": "Point", "coordinates": [ -97.8301845, 30.2133708 ] } },
{ "type": "Feature", "properties": { "Phone": "+1 512-292-8471", "Address": "8600 Menchaca Rd, Austin, TX 78748", "Name": "Shell" }, "geometry": { "type": "Point", "coordinates": [ -97.8165496, 30.1864712 ] } },
{ "type": "Feature", "properties": { "Phone": "+1 512-280-6562", "Address": "9909 Manchaca Rd, Austin, TX 78748", "Name": "Exxon" }, "geometry": { "type": "Point", "coordinates": [ -97.8234665, 30.1732594 ] } },
{ "type": "Feature", "properties": { "Phone": "+1 512-685-9228", "Address": "6301 E Riverside Dr, Austin, TX 78741", "Name": "Shell" }, "geometry": { "type": "Point", "coordinates": [ -97.7033068, 30.2246394 ] } },
{ "type": "Feature", "properties": { "Phone": "+1 512-447-5347", "Address": "2001 E Riverside Dr, Austin, TX 78741", "Name": "Shell" }, "geometry": { "type": "Point", "coordinates": [ -97.728369, 30.2413164 ] } },
{ "type": "Feature", "properties": { "Phone": "+1 512-375-4273", "Address": "1919 S Pleasant Valley Rd, Austin, TX 78741", "Name": "Chevron" }, "geometry": { "type": "Point", "coordinates": [ -97.7220454, 30.2340844 ] } },
{ "type": "Feature", "properties": { "Phone": "+1 512-385-5676", "Address": "6306 E Riverside Dr, Austin, TX 78741", "Name": "Valero" }, "geometry": { "type": "Point", "coordinates": [ -97.7028926, 30.2251098 ] } },
{ "type": "Feature", "properties": { "Phone": "+1 512-443-4319", "Address": "4400 E Ben White Blvd, Austin, TX 78741", "Name": "Exxon" }, "geometry": { "type": "Point", "coordinates": [ -97.7341751, 30.2157665 ] } },
{ "type": "Feature", "properties": { "Phone": "+1 855-285-9595", "Address": "2300 E Ben White Blvd, Austin, TX 78741", "Name": "Chevron" }, "geometry": { "type": "Point", "coordinates": [ -97.7383108, 30.21629 ] } },
{ "type": "Feature", "properties": { "Phone": "+1 512-326-9976", "Address": "1723 E Oltorf St, Austin, TX 78741", "Name": "Gulf" }, "geometry": { "type": "Point", "coordinates": [ -97.7383904, 30.2325935 ] } },
{ "type": "Feature", "properties": { "Phone": "+1 512-462-9500", "Address": "2433 S Pleasant Valley Rd, Austin, TX 78741", "Name": "Mobil" }, "geometry": { "type": "Point", "coordinates": [ -97.7272583, 30.2275266 ] } },
{ "type": "Feature", "properties": { "Phone": "+1 512-385-4208", "Address": "6009 E Ben White Blvd, Austin, TX 78741", "Name": "Valero" }, "geometry": { "type": "Point", "coordinates": [ -97.7161379, 30.2122637 ] } },
{ "type": "Feature", "properties": { "Phone": "+1 512-375-3174", "Address": "3404 Lockhart Hwy, Austin, TX 78744", "Name": "STAR STOP 72" }, "geometry": { "type": "Point", "coordinates": [ -97.6843292, 30.2002613 ] } },
{ "type": "Feature", "properties": { "Phone": null, "Address": "1611 Airport Commerce Dr, Austin, TX 78741", "Name": "Bread Basket Elroy" }, "geometry": { "type": "Point", "coordinates": [ -97.6896181, 30.2214542 ] } },
{ "type": "Feature", "properties": { "Phone": null, "Address": "3404 Lockhart Hwy, Austin, TX 78744", "Name": "Chevron" }, "geometry": { "type": "Point", "coordinates": [ -97.684317299999989, 30.2002666 ] } },
{ "type": "Feature", "properties": { "Phone": "+1 512-292-8023", "Address": "8801 S I-35 Frontage Rd, Austin, TX 78744", "Name": "Circle K" }, "geometry": { "type": "Point", "coordinates": [ -97.7841299, 30.1675158 ] } },
{ "type": "Feature", "properties": { "Phone": "+1 512-386-5329", "Address": "6311 Burleson Rd, Austin, TX 78744", "Name": "Exxon" }, "geometry": { "type": "Point", "coordinates": [ -97.7162202, 30.2050211 ] } },
{ "type": "Feature", "properties": { "Phone": "+1 512-444-0451", "Address": "4906 Burleson Rd, Austin, TX 78744", "Name": "Shell" }, "geometry": { "type": "Point", "coordinates": [ -97.7301636, 30.2122435 ] } },
{ "type": "Feature", "properties": { "Phone": "+1 512-462-0735", "Address": "1901 E William Cannon Dr, Austin, TX 78744", "Name": "Shell" }, "geometry": { "type": "Point", "coordinates": [ -97.7656764, 30.188141 ] } },
{ "type": "Feature", "properties": { "Phone": "+1 512-280-7000", "Address": "729 E Slaughter Ln, Austin, TX 78744", "Name": "Texaco Station Austin" }, "geometry": { "type": "Point", "coordinates": [ -97.7774415, 30.1603509 ] } },
{ "type": "Feature", "properties": { "Phone": "+1 512-707-1882", "Address": "7612 Bluff Springs Rd, Austin, TX 78744", "Name": "CITGO" }, "geometry": { "type": "Point", "coordinates": [ -97.769520899999989, 30.1745822 ] } },
{ "type": "Feature", "properties": { "Phone": "+1 512-282-3500", "Address": "8101 Salt Springs Dr, Austin, TX 78744", "Name": "Texaco Austin" }, "geometry": { "type": "Point", "coordinates": [ -97.7453837, 30.1588114 ] } },
{ "type": "Feature", "properties": { "Phone": "+1 512-445-4666", "Address": "1706 E William Cannon Dr, Austin, TX 78744", "Name": "Valero / Circle K" }, "geometry": { "type": "Point", "coordinates": [ -97.7671905, 30.1893574 ] } },
{ "type": "Feature", "properties": { "Phone": "+1 512-445-5059", "Address": "5303 Nuckols Crossing Rd, Austin, TX 78744", "Name": "CHEVRON" }, "geometry": { "type": "Point", "coordinates": [ -97.738674, 30.1927035 ] } },
{ "type": "Feature", "properties": { "Phone": "+1 512-441-7636", "Address": "2008 Teri Rd, Austin, TX 78744", "Name": "METRO MART #2" }, "geometry": { "type": "Point", "coordinates": [ -97.7522833, 30.2026106 ] } },
{ "type": "Feature", "properties": { "Phone": "+1 737-236-8391", "Address": "8700 S I-35 Frontage Rd, Austin, TX 78745", "Name": "H-E-B Fuel" }, "geometry": { "type": "Point", "coordinates": [ -97.7845546, 30.1706479 ] } },
{ "type": "Feature", "properties": { "Phone": "+1 512-326-8344", "Address": "6607 Circle S Rd, Austin, TX 78745", "Name": "Exxon" }, "geometry": { "type": "Point", "coordinates": [ -97.7769513, 30.1929659 ] } },
{ "type": "Feature", "properties": { "Phone": "+1 512-671-5017", "Address": "4402 S Congress Ave, Austin, TX 78745", "Name": "QuikTrip" }, "geometry": { "type": "Point", "coordinates": [ -97.7679551, 30.2172121 ] } },
{ "type": "Feature", "properties": { "Phone": "+1 512-441-5825", "Address": "5800 S Congress Ave, Austin, TX 78745", "Name": "Citgo" }, "geometry": { "type": "Point", "coordinates": [ -97.775624, 30.2031681 ] } },
{ "type": "Feature", "properties": { "Phone": "+1 512-707-1796", "Address": "3630 S Congress Ave, Austin, TX 78745", "Name": "Mobil" }, "geometry": { "type": "Point", "coordinates": [ -97.7620173, 30.2269679 ] } },
{ "type": "Feature", "properties": { "Phone": "+1 512-292-9377", "Address": "8801 West Gate Blvd, Austin, TX 78745", "Name": "Texaco" }, "geometry": { "type": "Point", "coordinates": [ -97.832459899999989, 30.1910961 ] } },
{ "type": "Feature", "properties": { "Phone": "+1 512-329-6185", "Address": "6111 Bee Cave Rd, Austin, TX 78746", "Name": "7-Eleven" }, "geometry": { "type": "Point", "coordinates": [ -97.8299132, 30.2958339 ] } },
{ "type": "Feature", "properties": { "Phone": "+1 210-345-2000", "Address": "2107 Boca Raton Dr, Austin, TX 78747", "Name": "Valero" }, "geometry": { "type": "Point", "coordinates": [ -97.7957357, 30.1393315 ] } },
{ "type": "Feature", "properties": { "Phone": "+1 512-582-4876", "Address": "9900 I-35, Austin, TX 78748", "Name": "Sam's Club Gas Station" }, "geometry": { "type": "Point", "coordinates": [ -97.791416200000015, 30.1570229 ] } },
{ "type": "Feature", "properties": { "Phone": "+1 512-750-6311", "Address": "1800 E Slaughter Ln, Austin, TX 78748", "Name": "Exxon" }, "geometry": { "type": "Point", "coordinates": [ -97.767638, 30.1530486 ] } },
{ "type": "Feature", "properties": { "Phone": "+1 512-282-3500", "Address": "8101 Salt Springs Dr, Austin, TX 78744", "Name": "Bread Basket" }, "geometry": { "type": "Point", "coordinates": [ -97.7453895, 30.1588501 ] } },
{ "type": "Feature", "properties": { "Phone": "+1 512-282-1294", "Address": "8628 Menchaca Rd, Austin, TX 78748", "Name": "Valero" }, "geometry": { "type": "Point", "coordinates": [ -97.8168467, 30.1857416 ] } },
{ "type": "Feature", "properties": { "Phone": "+1 512-291-1041", "Address": "525 W Slaughter Ln, Austin, TX 78748", "Name": "Chevron Austin" }, "geometry": { "type": "Point", "coordinates": [ -97.7995604, 30.1719608 ] } },
{ "type": "Feature", "properties": { "Phone": null, "Address": "129 W Slaughter Ln, Austin, TX 78748", "Name": "Murphy's USA" }, "geometry": { "type": "Point", "coordinates": [ -97.7889908, 30.1666076 ] } },
{ "type": "Feature", "properties": { "Phone": "+1 512-282-1294", "Address": "8628 Menchaca Rd, Austin, TX 78748", "Name": "Circle K" }, "geometry": { "type": "Point", "coordinates": [ -97.8170958, 30.1858277 ] } },
{ "type": "Feature", "properties": { "Phone": "+1 512-292-8063", "Address": "606 W Slaughter Ln, Austin, TX 78748", "Name": "Circle K" }, "geometry": { "type": "Point", "coordinates": [ -97.7995582, 30.1730337 ] } },
{ "type": "Feature", "properties": { "Phone": "+1 210-345-2000", "Address": "Plantation Rd, Austin, TX 78745", "Name": "Valero" }, "geometry": { "type": "Point", "coordinates": [ -97.8379406, 30.2011235 ] } },
{ "type": "Feature", "properties": { "Phone": null, "Address": "7612 Brodie Ln B, Austin, TX 78745", "Name": "Brodie Fuel & More" }, "geometry": { "type": "Point", "coordinates": [ -97.8353179, 30.2069597 ] } },
{ "type": "Feature", "properties": { "Phone": "+1 512-219-9813", "Address": "9708 Anderson Mill Rd, Austin, TX 78750", "Name": "Valero" }, "geometry": { "type": "Point", "coordinates": [ -97.7938685, 30.4481572 ] } },
{ "type": "Feature", "properties": { "Phone": "+1 512-335-8319", "Address": "9708 Anderson Mill Rd, Austin, TX 78750", "Name": "RZ FOOD MART" }, "geometry": { "type": "Point", "coordinates": [ -97.7938533, 30.4481704 ] } },
{ "type": "Feature", "properties": { "Phone": "+1 512-371-1313", "Address": "5630 N Lamar Blvd, Austin, TX 78751", "Name": "Shell" }, "geometry": { "type": "Point", "coordinates": [ -97.7266911, 30.3257931 ] } },
{ "type": "Feature", "properties": { "Phone": "+1 512-458-5424", "Address": "120 N Loop Blvd E, Austin, TX 78751", "Name": "North Loop Food Store" }, "geometry": { "type": "Point", "coordinates": [ -97.721279, 30.3179845 ] } },
{ "type": "Feature", "properties": { "Phone": "+1 512-371-1313", "Address": "5630 N Lamar Blvd, Austin, TX 78751", "Name": "Snack Max" }, "geometry": { "type": "Point", "coordinates": [ -97.7268713, 30.3258423 ] } },
{ "type": "Feature", "properties": { "Phone": "+1 512-467-1870", "Address": "500 E 51st St, Austin, TX 78751", "Name": "Duval Market" }, "geometry": { "type": "Point", "coordinates": [ -97.7190406, 30.3140436 ] } },
{ "type": "Feature", "properties": { "Phone": "+1 512-524-4217", "Address": "4429 Duval St, Austin, TX 78751", "Name": "Mini S Foodmart" }, "geometry": { "type": "Point", "coordinates": [ -97.72434, 30.3066567 ] } },
{ "type": "Feature", "properties": { "Phone": "+1 512-452-5549", "Address": "1308 W Koenig Ln, Austin, TX 78756", "Name": "Shell" }, "geometry": { "type": "Point", "coordinates": [ -97.7312935, 30.3308905 ] } },
{ "type": "Feature", "properties": { "Phone": "+1 512-371-8740", "Address": "6301 N Lamar Blvd, Austin, TX 78752", "Name": "Shell" }, "geometry": { "type": "Point", "coordinates": [ -97.722686599999989, 30.3312677 ] } },
{ "type": "Feature", "properties": { "Phone": "+1 512-453-1759", "Address": "7114 N Interstate Hwy 35, Austin, TX 78752", "Name": "Exxon" }, "geometry": { "type": "Point", "coordinates": [ -97.7050479, 30.3327586 ] } },
{ "type": "Feature", "properties": { "Phone": "+1 512-300-2800", "Address": "6515 Airport Blvd, Austin, TX 78752", "Name": "Shell" }, "geometry": { "type": "Point", "coordinates": [ -97.7153118, 30.3301434 ] } },
{ "type": "Feature", "properties": { "Phone": "+1 512-451-3091", "Address": "6707 Cameron Rd, Austin, TX 78752", "Name": "Exxon" }, "geometry": { "type": "Point", "coordinates": [ -97.6940361, 30.3223689 ] } },
{ "type": "Feature", "properties": { "Phone": "+1 512-452-1992", "Address": "7200 N Interstate Hwy 35, Austin, TX 78752", "Name": "Mobil" }, "geometry": { "type": "Point", "coordinates": [ -97.7047357, 30.3332766 ] } },
{ "type": "Feature", "properties": { "Phone": "+1 512-453-5756", "Address": "Austin, TX 78752", "Name": "Muchos" }, "geometry": { "type": "Point", "coordinates": [ -97.70128, 30.335942 ] } },
{ "type": "Feature", "properties": { "Phone": "+1 210-345-2000", "Address": "704 E St Johns Ave, Austin, TX 78752", "Name": "Valero" }, "geometry": { "type": "Point", "coordinates": [ -97.705184, 30.3335206 ] } },
{ "type": "Feature", "properties": { "Phone": "+1 512-453-5756", "Address": "7509 N Interstate Hwy 35, Austin, TX 78752", "Name": "Valero" }, "geometry": { "type": "Point", "coordinates": [ -97.7013928, 30.3359603 ] } },
{ "type": "Feature", "properties": { "Phone": "+1 210-345-2000", "Address": "720 Lamar Pl, Austin, TX 78752", "Name": "Valero" }, "geometry": { "type": "Point", "coordinates": [ -97.7224576, 30.3318205 ] } },
{ "type": "Feature", "properties": { "Phone": "+1 512-973-0668", "Address": "8201 N Lamar Blvd, Austin, TX 78753", "Name": "Texaco Austin" }, "geometry": { "type": "Point", "coordinates": [ -97.7086825, 30.3508109 ] } },
{ "type": "Feature", "properties": { "Phone": "+1 737-207-7070", "Address": "221 E Parmer Ln, Austin, TX 78753", "Name": "QuikTrip" }, "geometry": { "type": "Point", "coordinates": [ -97.6647723, 30.4047068 ] } },
{ "type": "Feature", "properties": { "Phone": "+1 512-821-9949", "Address": "1625 E Parmer Ln, Austin, TX 78753", "Name": "Exxon" }, "geometry": { "type": "Point", "coordinates": [ -97.6491726, 30.3866558 ] } },
{ "type": "Feature", "properties": { "Phone": "+1 512-873-9347", "Address": "9400 N Interstate 35 Frontage Rd, Austin, TX 78753", "Name": "Shell" }, "geometry": { "type": "Point", "coordinates": [ -97.6886812, 30.3589863 ] } },
{ "type": "Feature", "properties": { "Phone": "+1 512-836-9191", "Address": "8700 N Lamar Blvd, Austin, TX 78753", "Name": "Shell" }, "geometry": { "type": "Point", "coordinates": [ -97.702655, 30.3558853 ] } },
{ "type": "Feature", "properties": { "Phone": "+1 512-551-2240", "Address": "8545 N Lamar Blvd, Austin, TX 78753", "Name": "Exxon" }, "geometry": { "type": "Point", "coordinates": [ -97.70424, 30.35413 ] } },
{ "type": "Feature", "properties": { "Phone": "+1 512-835-5666", "Address": "8900 N Lamar Blvd, Austin, TX 78753", "Name": "Exxon" }, "geometry": { "type": "Point", "coordinates": [ -97.70031, 30.35806 ] } },
{ "type": "Feature", "properties": { "Phone": "+1 512-458-8500", "Address": "8540 Research Blvd, Austin, TX 78758", "Name": "Shell" }, "geometry": { "type": "Point", "coordinates": [ -97.717267, 30.360533 ] } },
{ "type": "Feature", "properties": { "Phone": "+1 512-872-2976", "Address": "2909 W Anderson Ln., Austin, TX 78757", "Name": "Chevron" }, "geometry": { "type": "Point", "coordinates": [ -97.738195499999989, 30.3592964 ] } },
{ "type": "Feature", "properties": { "Phone": "+1 512-451-4440", "Address": "8400 Burnet Rd, Austin, TX 78757", "Name": "Shell" }, "geometry": { "type": "Point", "coordinates": [ -97.7289427, 30.3649648 ] } },
{ "type": "Feature", "properties": { "Phone": "+1 512-420-0000", "Address": "7844 Burnet Rd, Austin, TX 78757", "Name": "Exxon" }, "geometry": { "type": "Point", "coordinates": [ -97.7315625, 30.355916 ] } },
{ "type": "Feature", "properties": { "Phone": null, "Address": "1112 W Koenig Ln, Austin, TX 78756", "Name": "Valero (2222 Market)" }, "geometry": { "type": "Point", "coordinates": [ -97.7291601, 30.3298356 ] } },
{ "type": "Feature", "properties": { "Phone": "+1 512-452-5549", "Address": "1308 W Koenig Ln, Austin, TX 78756", "Name": "C-Mart" }, "geometry": { "type": "Point", "coordinates": [ -97.7311353, 30.3308828 ] } },
{ "type": "Feature", "properties": { "Phone": "+1 512-380-0551", "Address": "1309 W 45th St, Austin, TX 78756", "Name": "Rosedale Market" }, "geometry": { "type": "Point", "coordinates": [ -97.74122650000001, 30.3150277 ] } },
{ "type": "Feature", "properties": { "Phone": "+1 512-452-8600", "Address": "1700 W Anderson Ln., Austin, TX 78757", "Name": "Chevron" }, "geometry": { "type": "Point", "coordinates": [ -97.7235198, 30.3528773 ] } },
{ "type": "Feature", "properties": { "Phone": "+1 512-459-8323", "Address": "8224 Burnet Rd, Austin, TX 78757", "Name": "Shell" }, "geometry": { "type": "Point", "coordinates": [ -97.729644, 30.362426 ] } },
{ "type": "Feature", "properties": { "Phone": "+1 512-206-3181", "Address": "1901 W Anderson Ln., Austin, TX 78757", "Name": "Grubbys Valero" }, "geometry": { "type": "Point", "coordinates": [ -97.7264237, 30.3537906 ] } },
{ "type": "Feature", "properties": { "Phone": "+1 512-453-5176", "Address": "1809 W Anderson Ln., Austin, TX 78757", "Name": "Citgo" }, "geometry": { "type": "Point", "coordinates": [ -97.7252898, 30.3532834 ] } },
{ "type": "Feature", "properties": { "Phone": "+1 512-459-8323", "Address": "8224 Burnet Rd, Austin, TX 78757", "Name": "STAR STOP 37" }, "geometry": { "type": "Point", "coordinates": [ -97.7295945, 30.3623669 ] } },
{ "type": "Feature", "properties": { "Phone": "+1 512-524-1914", "Address": "1901 W Anderson Ln., Austin, TX 78757", "Name": "Quick & Go" }, "geometry": { "type": "Point", "coordinates": [ -97.726399, 30.35374 ] } },
{ "type": "Feature", "properties": { "Phone": "+1 512-872-2976", "Address": "2909 W Anderson Ln., Austin, TX 78757", "Name": "STAR STOP 76" }, "geometry": { "type": "Point", "coordinates": [ -97.738169200000016, 30.359093 ] } },
{ "type": "Feature", "properties": { "Phone": "+1 512-459-0746", "Address": "7401 Burnet Rd, Austin, TX 78757", "Name": "Texaco" }, "geometry": { "type": "Point", "coordinates": [ -97.7343955, 30.3495639 ] } },
{ "type": "Feature", "properties": { "Phone": "+1 512-973-9232", "Address": "9200 Burnet Rd, Austin, TX 78758", "Name": "Exxon" }, "geometry": { "type": "Point", "coordinates": [ -97.726245, 30.375949 ] } },
{ "type": "Feature", "properties": { "Phone": "+1 512-206-0469", "Address": "8400 Burnet Rd, Austin, TX 78757", "Name": "Burnet Express" }, "geometry": { "type": "Point", "coordinates": [ -97.729047, 30.365049 ] } },
{ "type": "Feature", "properties": { "Phone": null, "Address": "1721 W Anderson Ln., Austin, TX 78757", "Name": "Mobil" }, "geometry": { "type": "Point", "coordinates": [ -97.7245048, 30.3528896 ] } },
{ "type": "Feature", "properties": { "Phone": "+1 512-452-8912", "Address": "8218 Burnet Rd, Austin, TX 78757", "Name": "Burnet Chevron" }, "geometry": { "type": "Point", "coordinates": [ -97.7298243, 30.3618844 ] } },
{ "type": "Feature", "properties": { "Phone": "+1 512-453-2575", "Address": "8538 Research Blvd, Austin, TX 78758", "Name": "Valero Gas Station" }, "geometry": { "type": "Point", "coordinates": [ -97.7170664, 30.3600757 ] } },
{ "type": "Feature", "properties": { "Phone": "+1 512-836-3357", "Address": "9433 Parkfield Dr, Austin, TX 78758", "Name": "Circle K/Valero" }, "geometry": { "type": "Point", "coordinates": [ -97.7053414, 30.3687102 ] } },
{ "type": "Feature", "properties": { "Phone": "+1 512-836-3357", "Address": "9433 Parkfield Dr, Austin, TX 78758", "Name": "Circle K" }, "geometry": { "type": "Point", "coordinates": [ -97.7052946, 30.3686263 ] } },
{ "type": "Feature", "properties": { "Phone": "+1 512-452-1166", "Address": "8630 Research Blvd, Austin, TX 78758", "Name": "Pronto C-Store" }, "geometry": { "type": "Point", "coordinates": [ -97.7179355, 30.3626328 ] } },
{ "type": "Feature", "properties": { "Phone": "+1 855-285-9595", "Address": "8630 Research Blvd, Austin, TX 78758", "Name": "Texaco Austin" }, "geometry": { "type": "Point", "coordinates": [ -97.7179035, 30.3628175 ] } },
{ "type": "Feature", "properties": { "Phone": "+1 512-836-7809", "Address": "8523 Research Blvd, Austin, TX 78758", "Name": "Chevron" }, "geometry": { "type": "Point", "coordinates": [ -97.7160848, 30.3601537 ] } },
{ "type": "Feature", "properties": { "Phone": "+1 512-836-7809", "Address": "8523 Research Blvd, Austin, TX 78758", "Name": "C-Mart" }, "geometry": { "type": "Point", "coordinates": [ -97.7161398, 30.3601439 ] } },
{ "type": "Feature", "properties": { "Phone": "+1 512-443-6636", "Address": "2300 E Ben White Blvd, Austin, TX 78741", "Name": "Power Stop" }, "geometry": { "type": "Point", "coordinates": [ -97.7383419, 30.2163392 ] } },
{ "type": "Feature", "properties": { "Phone": null, "Address": "2010 Teri Rd, Austin, TX 78744", "Name": "Fuelhub" }, "geometry": { "type": "Point", "coordinates": [ -97.7523872, 30.2023962 ] } }
]
}
